<?xml version="1.0"?>
<gpx xmlns="http://www.topografix.com/GPX/1/1" xmlns:xsi="http://www.w3.org/2001/XMLSchema-instance" xmlns:wptx1="http://www.garmin.com/xmlschemas/WaypointExtension/v1" xmlns:gpxtrx="http://www.garmin.com/xmlschemas/GpxExtensions/v3" xmlns:gpxtpx="http://www.garmin.com/xmlschemas/TrackPointExtension/v1" xmlns:gpxx="http://www.garmin.com/xmlschemas/GpxExtensions/v3" xmlns:trp="http://www.garmin.com/xmlschemas/TripExtensions/v1" xmlns:adv="http://www.garmin.com/xmlschemas/AdventuresExtensions/v1" xmlns:prs="http://www.garmin.com/xmlschemas/PressureExtension/v1" xmlns:tmd="http://www.garmin.com/xmlschemas/TripMetaDataExtensions/v1" xmlns:vptm="http://www.garmin.com/xmlschemas/ViaPointTransportationModeExtensions/v1" xmlns:ctx="http://www.garmin.com/xmlschemas/CreationTimeExtension/v1" xmlns:gpxacc="http://www.garmin.com/xmlschemas/AccelerationExtension/v1" xmlns:gpxpx="http://www.garmin.com/xmlschemas/PowerExtension/v1" xmlns:vidx1="http://www.garmin.com/xmlschemas/VideoExtension/v1" creator="Garmin Desktop App" version="1.1" xsi:schemaLocation="http://www.topografix.com/GPX/1/1 http://www.topografix.com/GPX/1/1/gpx.xsd http://www.garmin.com/xmlschemas/WaypointExtension/v1 http://www8.garmin.com/xmlschemas/WaypointExtensionv1.xsd http://www.garmin.com/xmlschemas/TrackPointExtension/v1 http://www.garmin.com/xmlschemas/TrackPointExtensionv1.xsd http://www.garmin.com/xmlschemas/GpxExtensions/v3 http://www8.garmin.com/xmlschemas/GpxExtensionsv3.xsd http://www.garmin.com/xmlschemas/ActivityExtension/v1 http://www8.garmin.com/xmlschemas/ActivityExtensionv1.xsd http://www.garmin.com/xmlschemas/AdventuresExtensions/v1 http://www8.garmin.com/xmlschemas/AdventuresExtensionv1.xsd http://www.garmin.com/xmlschemas/PressureExtension/v1 http://www.garmin.com/xmlschemas/PressureExtensionv1.xsd http://www.garmin.com/xmlschemas/TripExtensions/v1 http://www.garmin.com/xmlschemas/TripExtensionsv1.xsd http://www.garmin.com/xmlschemas/TripMetaDataExtensions/v1 http://www.garmin.com/xmlschemas/TripMetaDataExtensionsv1.xsd http://www.garmin.com/xmlschemas/ViaPointTransportationModeExtensions/v1 http://www.garmin.com/xmlschemas/ViaPointTransportationModeExtensionsv1.xsd http://www.garmin.com/xmlschemas/CreationTimeExtension/v1 http://www.garmin.com/xmlschemas/CreationTimeExtensionsv1.xsd http://www.garmin.com/xmlschemas/AccelerationExtension/v1 http://www.garmin.com/xmlschemas/AccelerationExtensionv1.xsd http://www.garmin.com/xmlschemas/PowerExtension/v1 http://www.garmin.com/xmlschemas/PowerExtensionv1.xsd http://www.garmin.com/xmlschemas/VideoExtension/v1 http://www.garmin.com/xmlschemas/VideoExtensionv1.xsd">
  <metadata>
    <link href="http://www.garmin.com">
      <text>Garmin International</text>
    </link>
    <time>2025-03-10T17:49:27Z</time>
    <bounds maxlat="55.654892921447754" maxlon="-1.633707527071238" minlat="55.049464702606201" minlon="-2.872535716742277"/>
  </metadata>
  <wpt lat="55.388623997569084" lon="-2.644171016290784">
    <time>2025-03-10T17:40:46Z</time>
    <name>A6088 (to Bonchester Bridge)2</name>
    <sym>Flag, Blue</sym>
    <type>user</type>
    <extensions>
      <gpxx:WaypointExtension>
        <gpxx:DisplayMode>SymbolAndName</gpxx:DisplayMode>
      </gpxx:WaypointExtension>
      <wptx1:WaypointExtension>
        <wptx1:DisplayMode>SymbolAndName</wptx1:DisplayMode>
      </wptx1:WaypointExtension>
      <ctx:CreationTimeExtension>
        <ctx:CreationTime>2025-03-10T17:40:46Z</ctx:CreationTime>
      </ctx:CreationTimeExtension>
    </extensions>
  </wpt>
  <wpt lat="55.401796996593475" lon="-2.657348038628697">
    <time>2025-03-10T17:40:46Z</time>
    <name>A6088 (to Hawick)</name>
    <sym>Flag, Blue</sym>
    <type>user</type>
    <extensions>
      <gpxx:WaypointExtension>
        <gpxx:DisplayMode>SymbolAndName</gpxx:DisplayMode>
      </gpxx:WaypointExtension>
      <wptx1:WaypointExtension>
        <wptx1:DisplayMode>SymbolAndName</wptx1:DisplayMode>
      </wptx1:WaypointExtension>
      <ctx:CreationTimeExtension>
        <ctx:CreationTime>2025-03-10T17:40:46Z</ctx:CreationTime>
      </ctx:CreationTimeExtension>
    </extensions>
  </wpt>
  <wpt lat="55.604675011709332" lon="-2.785566011443734">
    <time>2025-03-10T17:40:46Z</time>
    <name>A6091 (to Melrose)</name>
    <sym>Flag, Blue</sym>
    <type>user</type>
    <extensions>
      <gpxx:WaypointExtension>
        <gpxx:DisplayMode>SymbolAndName</gpxx:DisplayMode>
      </gpxx:WaypointExtension>
      <wptx1:WaypointExtension>
        <wptx1:DisplayMode>SymbolAndName</wptx1:DisplayMode>
      </wptx1:WaypointExtension>
      <ctx:CreationTimeExtension>
        <ctx:CreationTime>2025-03-10T17:40:46Z</ctx:CreationTime>
      </ctx:CreationTimeExtension>
    </extensions>
  </wpt>
  <wpt lat="55.594904981553555" lon="-2.670731004327536">
    <time>2025-03-10T17:40:46Z</time>
    <name>A68 (to Newton St Boswells)</name>
    <sym>Flag, Blue</sym>
    <type>user</type>
    <extensions>
      <gpxx:WaypointExtension>
        <gpxx:DisplayMode>SymbolAndName</gpxx:DisplayMode>
      </gpxx:WaypointExtension>
      <wptx1:WaypointExtension>
        <wptx1:DisplayMode>SymbolAndName</wptx1:DisplayMode>
      </wptx1:WaypointExtension>
      <ctx:CreationTimeExtension>
        <ctx:CreationTime>2025-03-10T17:40:46Z</ctx:CreationTime>
      </ctx:CreationTimeExtension>
    </extensions>
  </wpt>
  <wpt lat="55.101822009310126" lon="-1.840018015354872">
    <time>2025-03-10T17:40:46Z</time>
    <name>A696 (Belsay)</name>
    <sym>Flag, Blue</sym>
    <type>user</type>
    <extensions>
      <gpxx:WaypointExtension>
        <gpxx:DisplayMode>SymbolAndName</gpxx:DisplayMode>
      </gpxx:WaypointExtension>
      <wptx1:WaypointExtension>
        <wptx1:DisplayMode>SymbolAndName</wptx1:DisplayMode>
      </wptx1:WaypointExtension>
      <ctx:CreationTimeExtension>
        <ctx:CreationTime>2025-03-10T17:40:46Z</ctx:CreationTime>
      </ctx:CreationTimeExtension>
    </extensions>
  </wpt>
  <wpt lat="55.049936017021537" lon="-1.742130964994431">
    <time>2025-03-10T17:40:46Z</time>
    <name>A696 (towards Jedburgh)1</name>
    <sym>Flag, Blue</sym>
    <type>user</type>
    <extensions>
      <gpxx:WaypointExtension>
        <gpxx:DisplayMode>SymbolAndName</gpxx:DisplayMode>
      </gpxx:WaypointExtension>
      <wptx1:WaypointExtension>
        <wptx1:DisplayMode>SymbolAndName</wptx1:DisplayMode>
      </wptx1:WaypointExtension>
      <ctx:CreationTimeExtension>
        <ctx:CreationTime>2025-03-10T17:40:46Z</ctx:CreationTime>
      </ctx:CreationTimeExtension>
    </extensions>
  </wpt>
  <wpt lat="55.308225033804774" lon="-1.799769960343838">
    <time>2025-03-10T17:40:46Z</time>
    <name>A697 (Longframlington)</name>
    <sym>Flag, Blue</sym>
    <type>user</type>
    <extensions>
      <gpxx:WaypointExtension>
        <gpxx:DisplayMode>SymbolAndName</gpxx:DisplayMode>
      </gpxx:WaypointExtension>
      <wptx1:WaypointExtension>
        <wptx1:DisplayMode>SymbolAndName</wptx1:DisplayMode>
      </wptx1:WaypointExtension>
      <ctx:CreationTimeExtension>
        <ctx:CreationTime>2025-03-10T17:40:46Z</ctx:CreationTime>
      </ctx:CreationTimeExtension>
    </extensions>
  </wpt>
  <wpt lat="55.599502958357334" lon="-2.106030033901334">
    <time>2025-03-10T17:40:46Z</time>
    <name>A697 (Milfield)</name>
    <sym>Flag, Blue</sym>
    <type>user</type>
    <extensions>
      <gpxx:WaypointExtension>
        <gpxx:DisplayMode>SymbolAndName</gpxx:DisplayMode>
      </gpxx:WaypointExtension>
      <wptx1:WaypointExtension>
        <wptx1:DisplayMode>SymbolAndName</wptx1:DisplayMode>
      </wptx1:WaypointExtension>
      <ctx:CreationTimeExtension>
        <ctx:CreationTime>2025-03-10T17:40:46Z</ctx:CreationTime>
      </ctx:CreationTimeExtension>
    </extensions>
  </wpt>
  <wpt lat="55.447091963142157" lon="-1.908667981624603">
    <time>2025-03-10T17:40:46Z</time>
    <name>A697 (Powborn)</name>
    <sym>Flag, Blue</sym>
    <type>user</type>
    <extensions>
      <gpxx:WaypointExtension>
        <gpxx:DisplayMode>SymbolAndName</gpxx:DisplayMode>
      </gpxx:WaypointExtension>
      <wptx1:WaypointExtension>
        <wptx1:DisplayMode>SymbolAndName</wptx1:DisplayMode>
      </wptx1:WaypointExtension>
      <ctx:CreationTimeExtension>
        <ctx:CreationTime>2025-03-10T17:40:46Z</ctx:CreationTime>
      </ctx:CreationTimeExtension>
    </extensions>
  </wpt>
  <wpt lat="55.648235008120537" lon="-2.220916002988815">
    <time>2025-03-10T17:40:46Z</time>
    <name>A697 (towards Morpeth)</name>
    <sym>Flag, Blue</sym>
    <type>user</type>
    <extensions>
      <gpxx:WaypointExtension>
        <gpxx:DisplayMode>SymbolAndName</gpxx:DisplayMode>
      </gpxx:WaypointExtension>
      <wptx1:WaypointExtension>
        <wptx1:DisplayMode>SymbolAndName</wptx1:DisplayMode>
      </wptx1:WaypointExtension>
      <ctx:CreationTimeExtension>
        <ctx:CreationTime>2025-03-10T17:40:46Z</ctx:CreationTime>
      </ctx:CreationTimeExtension>
    </extensions>
  </wpt>
  <wpt lat="55.5521160364151" lon="-2.018238985911012">
    <time>2025-03-10T17:40:46Z</time>
    <name>A697 (Wooler)2</name>
    <sym>Flag, Blue</sym>
    <type>user</type>
    <extensions>
      <gpxx:WaypointExtension>
        <gpxx:DisplayMode>SymbolAndName</gpxx:DisplayMode>
      </gpxx:WaypointExtension>
      <wptx1:WaypointExtension>
        <wptx1:DisplayMode>SymbolAndName</wptx1:DisplayMode>
      </wptx1:WaypointExtension>
      <ctx:CreationTimeExtension>
        <ctx:CreationTime>2025-03-10T17:40:46Z</ctx:CreationTime>
      </ctx:CreationTimeExtension>
    </extensions>
  </wpt>
  <wpt lat="55.644172970205545" lon="-2.337839026004076">
    <time>2025-03-10T17:40:46Z</time>
    <name>A698 (Birgham)</name>
    <sym>Flag, Blue</sym>
    <type>user</type>
    <extensions>
      <gpxx:WaypointExtension>
        <gpxx:DisplayMode>SymbolAndName</gpxx:DisplayMode>
      </gpxx:WaypointExtension>
      <wptx1:WaypointExtension>
        <wptx1:DisplayMode>SymbolAndName</wptx1:DisplayMode>
      </wptx1:WaypointExtension>
      <ctx:CreationTimeExtension>
        <ctx:CreationTime>2025-03-10T17:40:46Z</ctx:CreationTime>
      </ctx:CreationTimeExtension>
    </extensions>
  </wpt>
  <wpt lat="55.647768974304199" lon="-2.261481983587146">
    <time>2025-03-10T17:40:46Z</time>
    <name>A698 (Coldstream)</name>
    <sym>Flag, Blue</sym>
    <type>user</type>
    <extensions>
      <gpxx:WaypointExtension>
        <gpxx:DisplayMode>SymbolAndName</gpxx:DisplayMode>
      </gpxx:WaypointExtension>
      <wptx1:WaypointExtension>
        <wptx1:DisplayMode>SymbolAndName</wptx1:DisplayMode>
      </wptx1:WaypointExtension>
      <ctx:CreationTimeExtension>
        <ctx:CreationTime>2025-03-10T17:40:46Z</ctx:CreationTime>
      </ctx:CreationTimeExtension>
    </extensions>
  </wpt>
  <wpt lat="55.600957972928882" lon="-2.425710037350655">
    <time>2025-03-10T17:40:46Z</time>
    <name>A698 (to Coldstream)</name>
    <sym>Flag, Blue</sym>
    <type>user</type>
    <extensions>
      <gpxx:WaypointExtension>
        <gpxx:DisplayMode>SymbolAndName</gpxx:DisplayMode>
      </gpxx:WaypointExtension>
      <wptx1:WaypointExtension>
        <wptx1:DisplayMode>SymbolAndName</wptx1:DisplayMode>
      </wptx1:WaypointExtension>
      <ctx:CreationTimeExtension>
        <ctx:CreationTime>2025-03-10T17:40:46Z</ctx:CreationTime>
      </ctx:CreationTimeExtension>
    </extensions>
  </wpt>
  <wpt lat="55.435499958693981" lon="-2.751898001879454">
    <time>2025-03-10T17:40:46Z</time>
    <name>A698 (towards Denholm)</name>
    <sym>Flag, Blue</sym>
    <type>user</type>
    <extensions>
      <gpxx:WaypointExtension>
        <gpxx:DisplayMode>SymbolAndName</gpxx:DisplayMode>
      </gpxx:WaypointExtension>
      <wptx1:WaypointExtension>
        <wptx1:DisplayMode>SymbolAndName</wptx1:DisplayMode>
      </wptx1:WaypointExtension>
      <ctx:CreationTimeExtension>
        <ctx:CreationTime>2025-03-10T17:40:46Z</ctx:CreationTime>
      </ctx:CreationTimeExtension>
    </extensions>
  </wpt>
  <wpt lat="55.566317997872829" lon="-2.647358989343047">
    <time>2025-03-10T17:40:46Z</time>
    <name>A699 (to Kelso)</name>
    <sym>Flag, Blue</sym>
    <type>user</type>
    <extensions>
      <gpxx:WaypointExtension>
        <gpxx:DisplayMode>SymbolAndName</gpxx:DisplayMode>
      </gpxx:WaypointExtension>
      <wptx1:WaypointExtension>
        <wptx1:DisplayMode>SymbolAndName</wptx1:DisplayMode>
      </wptx1:WaypointExtension>
      <ctx:CreationTimeExtension>
        <ctx:CreationTime>2025-03-10T17:40:46Z</ctx:CreationTime>
      </ctx:CreationTimeExtension>
    </extensions>
  </wpt>
  <wpt lat="55.542399985715747" lon="-2.832952011376619">
    <time>2025-03-10T17:40:46Z</time>
    <name>A7 (Selkirk)</name>
    <sym>Flag, Blue</sym>
    <type>user</type>
    <extensions>
      <gpxx:WaypointExtension>
        <gpxx:DisplayMode>SymbolAndName</gpxx:DisplayMode>
      </gpxx:WaypointExtension>
      <wptx1:WaypointExtension>
        <wptx1:DisplayMode>SymbolAndName</wptx1:DisplayMode>
      </wptx1:WaypointExtension>
      <ctx:CreationTimeExtension>
        <ctx:CreationTime>2025-03-10T17:40:46Z</ctx:CreationTime>
      </ctx:CreationTimeExtension>
    </extensions>
  </wpt>
  <wpt lat="55.560486959293485" lon="-2.831409992650151">
    <time>2025-03-10T17:40:46Z</time>
    <name>A7 (to Galashiels)</name>
    <sym>Flag, Blue</sym>
    <type>user</type>
    <extensions>
      <gpxx:WaypointExtension>
        <gpxx:DisplayMode>SymbolAndName</gpxx:DisplayMode>
      </gpxx:WaypointExtension>
      <wptx1:WaypointExtension>
        <wptx1:DisplayMode>SymbolAndName</wptx1:DisplayMode>
      </wptx1:WaypointExtension>
      <ctx:CreationTimeExtension>
        <ctx:CreationTime>2025-03-10T17:40:46Z</ctx:CreationTime>
      </ctx:CreationTimeExtension>
    </extensions>
  </wpt>
  <wpt lat="55.4487319663167" lon="-2.776653030887246">
    <time>2025-03-10T17:40:46Z</time>
    <name>A7 (towards Galashiels)</name>
    <sym>Flag, Blue</sym>
    <type>user</type>
    <extensions>
      <gpxx:WaypointExtension>
        <gpxx:DisplayMode>SymbolAndName</gpxx:DisplayMode>
      </gpxx:WaypointExtension>
      <wptx1:WaypointExtension>
        <wptx1:DisplayMode>SymbolAndName</wptx1:DisplayMode>
      </wptx1:WaypointExtension>
      <ctx:CreationTimeExtension>
        <ctx:CreationTime>2025-03-10T17:40:46Z</ctx:CreationTime>
      </ctx:CreationTimeExtension>
    </extensions>
  </wpt>
  <wpt lat="55.547122014686465" lon="-2.841853005811572">
    <time>2025-03-10T17:40:46Z</time>
    <name>A701 (towards Peebles)</name>
    <sym>Flag, Blue</sym>
    <type>user</type>
    <extensions>
      <gpxx:WaypointExtension>
        <gpxx:DisplayMode>SymbolAndName</gpxx:DisplayMode>
      </gpxx:WaypointExtension>
      <wptx1:WaypointExtension>
        <wptx1:DisplayMode>SymbolAndName</wptx1:DisplayMode>
      </wptx1:WaypointExtension>
      <ctx:CreationTimeExtension>
        <ctx:CreationTime>2025-03-10T17:40:46Z</ctx:CreationTime>
      </ctx:CreationTimeExtension>
    </extensions>
  </wpt>
  <wpt lat="55.548504022881389" lon="-2.857132041826844">
    <time>2025-03-10T17:40:46Z</time>
    <name>A708 (towards St Marys Loch)</name>
    <sym>Flag, Blue</sym>
    <type>user</type>
    <extensions>
      <gpxx:WaypointExtension>
        <gpxx:DisplayMode>SymbolAndName</gpxx:DisplayMode>
      </gpxx:WaypointExtension>
      <wptx1:WaypointExtension>
        <wptx1:DisplayMode>SymbolAndName</wptx1:DisplayMode>
      </wptx1:WaypointExtension>
      <ctx:CreationTimeExtension>
        <ctx:CreationTime>2025-03-10T17:40:46Z</ctx:CreationTime>
      </ctx:CreationTimeExtension>
    </extensions>
  </wpt>
  <wpt lat="55.230948999524117" lon="-2.176768016070127">
    <time>2025-03-10T17:40:46Z</time>
    <name>B6320 (towards Bellingham)</name>
    <sym>Flag, Blue</sym>
    <type>user</type>
    <extensions>
      <gpxx:WaypointExtension>
        <gpxx:DisplayMode>SymbolAndName</gpxx:DisplayMode>
      </gpxx:WaypointExtension>
      <wptx1:WaypointExtension>
        <wptx1:DisplayMode>SymbolAndName</wptx1:DisplayMode>
      </wptx1:WaypointExtension>
      <ctx:CreationTimeExtension>
        <ctx:CreationTime>2025-03-10T17:40:46Z</ctx:CreationTime>
      </ctx:CreationTimeExtension>
    </extensions>
  </wpt>
  <wpt lat="55.263021010905504" lon="-2.692125979810953">
    <time>2025-03-10T17:40:46Z</time>
    <name>B6357 (to Bonchester Bridge)1</name>
    <sym>Flag, Blue</sym>
    <type>user</type>
    <extensions>
      <gpxx:WaypointExtension>
        <gpxx:DisplayMode>SymbolAndName</gpxx:DisplayMode>
      </gpxx:WaypointExtension>
      <wptx1:WaypointExtension>
        <wptx1:DisplayMode>SymbolAndName</wptx1:DisplayMode>
      </wptx1:WaypointExtension>
      <ctx:CreationTimeExtension>
        <ctx:CreationTime>2025-03-10T17:40:46Z</ctx:CreationTime>
      </ctx:CreationTimeExtension>
    </extensions>
  </wpt>
  <wpt lat="55.547180017456412" lon="-2.852620985358953">
    <time>2025-03-10T17:40:46Z</time>
    <name>B7014 (Buccleuch Road)</name>
    <sym>Flag, Blue</sym>
    <type>user</type>
    <extensions>
      <gpxx:WaypointExtension>
        <gpxx:DisplayMode>SymbolAndName</gpxx:DisplayMode>
      </gpxx:WaypointExtension>
      <wptx1:WaypointExtension>
        <wptx1:DisplayMode>SymbolAndName</wptx1:DisplayMode>
      </wptx1:WaypointExtension>
      <ctx:CreationTimeExtension>
        <ctx:CreationTime>2025-03-10T17:40:46Z</ctx:CreationTime>
      </ctx:CreationTimeExtension>
    </extensions>
  </wpt>
  <wpt lat="55.079444004222751" lon="-1.648150971159339">
    <time>2025-03-10T17:40:46Z</time>
    <name>Berwick Hill Road (to Ponteland)3</name>
    <sym>Flag, Blue</sym>
    <type>user</type>
    <extensions>
      <gpxx:WaypointExtension>
        <gpxx:DisplayMode>SymbolAndName</gpxx:DisplayMode>
      </gpxx:WaypointExtension>
      <wptx1:WaypointExtension>
        <wptx1:DisplayMode>SymbolAndName</wptx1:DisplayMode>
      </wptx1:WaypointExtension>
      <ctx:CreationTimeExtension>
        <ctx:CreationTime>2025-03-10T17:40:46Z</ctx:CreationTime>
      </ctx:CreationTimeExtension>
    </extensions>
  </wpt>
  <wpt lat="55.197361037135124" lon="-1.724719991907477">
    <time>2025-03-10T17:40:46Z</time>
    <name>Lay-by (A697, Hebron)</name>
    <sym>Flag, Blue</sym>
    <type>user</type>
    <extensions>
      <gpxx:WaypointExtension>
        <gpxx:DisplayMode>SymbolAndName</gpxx:DisplayMode>
      </gpxx:WaypointExtension>
      <wptx1:WaypointExtension>
        <wptx1:DisplayMode>SymbolAndName</wptx1:DisplayMode>
      </wptx1:WaypointExtension>
      <ctx:CreationTimeExtension>
        <ctx:CreationTime>2025-03-10T17:40:46Z</ctx:CreationTime>
      </ctx:CreationTimeExtension>
    </extensions>
  </wpt>
  <wpt lat="55.055361036211252" lon="-1.74322597682476">
    <time>2025-03-10T17:40:46Z</time>
    <name>North Road (Ponteland)1</name>
    <sym>Flag, Blue</sym>
    <type>user</type>
    <extensions>
      <gpxx:WaypointExtension>
        <gpxx:DisplayMode>SymbolAndName</gpxx:DisplayMode>
      </gpxx:WaypointExtension>
      <wptx1:WaypointExtension>
        <wptx1:DisplayMode>SymbolAndName</wptx1:DisplayMode>
      </wptx1:WaypointExtension>
      <ctx:CreationTimeExtension>
        <ctx:CreationTime>2025-03-10T17:40:46Z</ctx:CreationTime>
      </ctx:CreationTimeExtension>
    </extensions>
  </wpt>
  <wpt lat="55.448848977684975" lon="-2.763106031343341">
    <time>2025-03-10T17:40:46Z</time>
    <name>Road (for A7)</name>
    <sym>Flag, Blue</sym>
    <type>user</type>
    <extensions>
      <gpxx:WaypointExtension>
        <gpxx:DisplayMode>SymbolAndName</gpxx:DisplayMode>
      </gpxx:WaypointExtension>
      <wptx1:WaypointExtension>
        <wptx1:DisplayMode>SymbolAndName</wptx1:DisplayMode>
      </wptx1:WaypointExtension>
      <ctx:CreationTimeExtension>
        <ctx:CreationTime>2025-03-10T17:40:46Z</ctx:CreationTime>
      </ctx:CreationTimeExtension>
    </extensions>
  </wpt>
  <wpt lat="55.443375008180737" lon="-2.749747959896922">
    <time>2025-03-10T17:40:46Z</time>
    <name>Road (to Appletreehall)</name>
    <sym>Flag, Blue</sym>
    <type>user</type>
    <extensions>
      <gpxx:WaypointExtension>
        <gpxx:DisplayMode>SymbolAndName</gpxx:DisplayMode>
      </gpxx:WaypointExtension>
      <wptx1:WaypointExtension>
        <wptx1:DisplayMode>SymbolAndName</wptx1:DisplayMode>
      </wptx1:WaypointExtension>
      <ctx:CreationTimeExtension>
        <ctx:CreationTime>2025-03-10T17:40:46Z</ctx:CreationTime>
      </ctx:CreationTimeExtension>
    </extensions>
  </wpt>
  <wpt lat="55.175004992634058" lon="-2.321043033152819">
    <time>2025-03-10T17:40:46Z</time>
    <name>Road (to Kielder Water and Forest)</name>
    <sym>Flag, Blue</sym>
    <type>user</type>
    <extensions>
      <gpxx:WaypointExtension>
        <gpxx:DisplayMode>SymbolAndName</gpxx:DisplayMode>
      </gpxx:WaypointExtension>
      <wptx1:WaypointExtension>
        <wptx1:DisplayMode>SymbolAndName</wptx1:DisplayMode>
      </wptx1:WaypointExtension>
      <ctx:CreationTimeExtension>
        <ctx:CreationTime>2025-03-10T17:40:46Z</ctx:CreationTime>
      </ctx:CreationTimeExtension>
    </extensions>
  </wpt>
  <wpt lat="55.182598996907473" lon="-2.263694973662496">
    <time>2025-03-10T17:40:46Z</time>
    <name>Road (to Kielder)</name>
    <sym>Flag, Blue</sym>
    <type>user</type>
    <extensions>
      <gpxx:WaypointExtension>
        <gpxx:DisplayMode>SymbolAndName</gpxx:DisplayMode>
      </gpxx:WaypointExtension>
      <wptx1:WaypointExtension>
        <wptx1:DisplayMode>SymbolAndName</wptx1:DisplayMode>
      </wptx1:WaypointExtension>
      <ctx:CreationTimeExtension>
        <ctx:CreationTime>2025-03-10T17:40:46Z</ctx:CreationTime>
      </ctx:CreationTimeExtension>
    </extensions>
  </wpt>
  <wpt lat="55.444823987782001" lon="-2.747059967368841">
    <time>2025-03-10T17:40:46Z</time>
    <name>Road (towards Hawick)</name>
    <sym>Flag, Blue</sym>
    <type>user</type>
    <extensions>
      <gpxx:WaypointExtension>
        <gpxx:DisplayMode>SymbolAndName</gpxx:DisplayMode>
      </gpxx:WaypointExtension>
      <wptx1:WaypointExtension>
        <wptx1:DisplayMode>SymbolAndName</wptx1:DisplayMode>
      </wptx1:WaypointExtension>
      <ctx:CreationTimeExtension>
        <ctx:CreationTime>2025-03-10T17:40:46Z</ctx:CreationTime>
      </ctx:CreationTimeExtension>
    </extensions>
  </wpt>
  <wpt lat="55.235098041594028" lon="-2.589537017047405">
    <time>2025-03-10T17:40:46Z</time>
    <name>Road (towards Jedburgh)</name>
    <sym>Flag, Blue</sym>
    <type>user</type>
    <extensions>
      <gpxx:WaypointExtension>
        <gpxx:DisplayMode>SymbolAndName</gpxx:DisplayMode>
      </gpxx:WaypointExtension>
      <wptx1:WaypointExtension>
        <wptx1:DisplayMode>SymbolAndName</wptx1:DisplayMode>
      </wptx1:WaypointExtension>
      <ctx:CreationTimeExtension>
        <ctx:CreationTime>2025-03-10T17:40:46Z</ctx:CreationTime>
      </ctx:CreationTimeExtension>
    </extensions>
  </wpt>
  <wpt lat="55.442634969949722" lon="-2.739436039701104">
    <time>2025-03-10T17:40:46Z</time>
    <name>Road (Weak Bridge)</name>
    <sym>Flag, Blue</sym>
    <type>user</type>
    <extensions>
      <gpxx:WaypointExtension>
        <gpxx:DisplayMode>SymbolAndName</gpxx:DisplayMode>
      </gpxx:WaypointExtension>
      <wptx1:WaypointExtension>
        <wptx1:DisplayMode>SymbolAndName</wptx1:DisplayMode>
      </wptx1:WaypointExtension>
      <ctx:CreationTimeExtension>
        <ctx:CreationTime>2025-03-10T17:40:46Z</ctx:CreationTime>
      </ctx:CreationTimeExtension>
    </extensions>
  </wpt>
  <wpt lat="55.066211996600032" lon="-1.633710041642189">
    <time>2025-03-10T17:40:46Z</time>
    <name>Seaton Burn</name>
    <sym>Flag, Blue</sym>
    <type>user</type>
    <extensions>
      <gpxx:WaypointExtension>
        <gpxx:DisplayMode>SymbolAndName</gpxx:DisplayMode>
      </gpxx:WaypointExtension>
      <wptx1:WaypointExtension>
        <wptx1:DisplayMode>SymbolAndName</wptx1:DisplayMode>
      </wptx1:WaypointExtension>
      <ctx:CreationTimeExtension>
        <ctx:CreationTime>2025-03-10T17:40:46Z</ctx:CreationTime>
      </ctx:CreationTimeExtension>
    </extensions>
  </wpt>
  <wpt lat="55.540920998901129" lon="-2.872208990156651">
    <time>2025-03-10T17:40:46Z</time>
    <name>The Waterwheel Cafe, Philiphaugh Old Mill
Selkirk
Scotland
TD7 5LU
United Kingdom</name>
    <sym>Flag, Blue</sym>
    <type>user</type>
    <extensions>
      <gpxx:WaypointExtension>
        <gpxx:DisplayMode>SymbolAndName</gpxx:DisplayMode>
      </gpxx:WaypointExtension>
      <wptx1:WaypointExtension>
        <wptx1:DisplayMode>SymbolAndName</wptx1:DisplayMode>
      </wptx1:WaypointExtension>
      <ctx:CreationTimeExtension>
        <ctx:CreationTime>2025-03-10T17:40:46Z</ctx:CreationTime>
      </ctx:CreationTimeExtension>
    </extensions>
  </wpt>
  <wpt lat="55.173272034153342" lon="-2.47382802888751">
    <time>2025-03-10T17:40:46Z</time>
    <name>Tower Knowe Visitor Centre, Kielder</name>
    <sym>Flag, Blue</sym>
    <type>user</type>
    <extensions>
      <gpxx:WaypointExtension>
        <gpxx:DisplayMode>SymbolAndName</gpxx:DisplayMode>
      </gpxx:WaypointExtension>
      <wptx1:WaypointExtension>
        <wptx1:DisplayMode>SymbolAndName</wptx1:DisplayMode>
      </wptx1:WaypointExtension>
      <ctx:CreationTimeExtension>
        <ctx:CreationTime>2025-03-10T17:40:46Z</ctx:CreationTime>
      </ctx:CreationTimeExtension>
    </extensions>
  </wpt>
  <wpt lat="55.598189011216164" lon="-2.433819025754929">
    <time>2025-03-10T17:40:46Z</time>
    <name>Woodmarket (for A698)</name>
    <sym>Flag, Blue</sym>
    <type>user</type>
    <extensions>
      <gpxx:WaypointExtension>
        <gpxx:DisplayMode>SymbolAndName</gpxx:DisplayMode>
      </gpxx:WaypointExtension>
      <wptx1:WaypointExtension>
        <wptx1:DisplayMode>SymbolAndName</wptx1:DisplayMode>
      </wptx1:WaypointExtension>
      <ctx:CreationTimeExtension>
        <ctx:CreationTime>2025-03-10T17:40:46Z</ctx:CreationTime>
      </ctx:CreationTimeExtension>
    </extensions>
  </wpt>
  <rte>
    <name>0078 - Kielder, Selkirk, Kelso, Coldstream (164m, 3h48m)</name>
    <desc>Now</desc>
    <extensions>
      <gpxx:RouteExtension>
        <gpxx:IsAutoNamed>false</gpxx:IsAutoNamed>
        <gpxx:DisplayColor>Magenta</gpxx:DisplayColor>
      </gpxx:RouteExtension>
      <trp:Trip>
        <trp:TransportationMode>Motorcycling</trp:TransportationMode>
      </trp:Trip>
    </extensions>
    <rtept lat="55.066211996600032" lon="-1.633710041642189">
      <time>2025-03-10T17:40:46Z</time>
      <name>Seaton Burn</name>
      <sym>Flag, Blue</sym>
      <extensions>
        <trp:ViaPoint>
          <trp:CalculationMode>FasterTime</trp:CalculationMode>
          <trp:ElevationMode>Standard</trp:ElevationMode>
        </trp:ViaPoint>
        <gpxx:RoutePointExtension>
          <gpxx:Subclass>000000000000FFFFFFFFFFFFFFFFFFFFFFFF</gpxx:Subclass>
          <gpxx:rpt lat="55.066212583333254" lon="-1.633707527071238">
            <gpxx:Subclass>0600BBE9D8013B9B0C002116000022000600</gpxx:Subclass>
          </gpxx:rpt>
          <gpxx:rpt lat="55.066330432891846" lon="-1.633808612823486"/>
          <gpxx:rpt lat="55.066330432891846" lon="-1.633808612823486"/>
          <gpxx:rpt lat="55.066330432891846" lon="-1.633808612823486"/>
          <gpxx:rpt lat="55.066330432891846" lon="-1.633808612823486">
            <gpxx:Subclass>0600BBE9D8010DA40C001F061200FD961300</gpxx:Subclass>
          </gpxx:rpt>
          <gpxx:rpt lat="55.066330432891846" lon="-1.633808612823486"/>
          <gpxx:rpt lat="55.066201686859131" lon="-1.634237766265869"/>
          <gpxx:rpt lat="55.066201686859131" lon="-1.634495258331299">
            <gpxx:Subclass>0600BBE9D8011E29A7001F001200B1961100</gpxx:Subclass>
          </gpxx:rpt>
          <gpxx:rpt lat="55.066201686859131" lon="-1.634495258331299"/>
          <gpxx:rpt lat="55.066137313842773" lon="-1.634817123413086"/>
          <gpxx:rpt lat="55.066030025482178" lon="-1.635053157806396">
            <gpxx:Subclass>0500BBE9D801932227001F023A00E9F17200</gpxx:Subclass>
          </gpxx:rpt>
          <gpxx:rpt lat="55.066030025482178" lon="-1.635053157806396"/>
          <gpxx:rpt lat="55.066437721252441" lon="-1.636061668395996"/>
          <gpxx:rpt lat="55.066931247711182" lon="-1.636683940887451"/>
          <gpxx:rpt lat="55.067617893218994" lon="-1.637413501739502"/>
          <gpxx:rpt lat="55.067918300628662" lon="-1.637649536132812">
            <gpxx:Subclass>0500BBE9D801342327001F003A008CF1E900</gpxx:Subclass>
          </gpxx:rpt>
          <gpxx:rpt lat="55.067918300628662" lon="-1.637649536132812"/>
          <gpxx:rpt lat="55.06871223449707" lon="-1.637928485870361"/>
          <gpxx:rpt lat="55.069034099578857" lon="-1.638121604919434"/>
          <gpxx:rpt lat="55.069334506988525" lon="-1.638529300689697"/>
          <gpxx:rpt lat="55.069591999053955" lon="-1.639173030853271"/>
          <gpxx:rpt lat="55.069591999053955" lon="-1.639173030853271"/>
          <gpxx:rpt lat="55.069699287414551" lon="-1.639494895935059"/>
          <gpxx:rpt lat="55.069742202758789" lon="-1.639688014984131"/>
          <gpxx:rpt lat="55.069849491119385" lon="-1.640009880065918"/>
          <gpxx:rpt lat="55.070192813873291" lon="-1.640846729278564"/>
          <gpxx:rpt lat="55.070793628692627" lon="-1.641554832458496"/>
          <gpxx:rpt lat="55.071887969970703" lon="-1.642327308654785">
            <gpxx:Subclass>0500BBE9D801A92227001F003A007DF18101</gpxx:Subclass>
          </gpxx:rpt>
          <gpxx:rpt lat="55.071887969970703" lon="-1.642327308654785"/>
          <gpxx:rpt lat="55.072295665740967" lon="-1.642563343048096"/>
          <gpxx:rpt lat="55.076587200164795" lon="-1.645224094390869"/>
          <gpxx:rpt lat="55.079591274261475" lon="-1.647498607635498">
            <gpxx:Subclass>0600BBE9D801F48B8C001F063A00B6F51200</gpxx:Subclass>
          </gpxx:rpt>
          <gpxx:rpt lat="55.079591274261475" lon="-1.647498607635498"/>
          <gpxx:rpt lat="55.079591274261475" lon="-1.647498607635498"/>
          <gpxx:rpt lat="55.079591274261475" lon="-1.647498607635498"/>
          <gpxx:rpt lat="55.079515166580677" lon="-1.648175613954663">
            <gpxx:Subclass>0600BBE9D801F48B0C00211700007D001200</gpxx:Subclass>
          </gpxx:rpt>
        </gpxx:RoutePointExtension>
      </extensions>
    </rtept>
    <rtept lat="55.079444004222751" lon="-1.648150971159339">
      <time>2025-03-10T17:40:46Z</time>
      <name>Berwick Hill Road (to Ponteland)3</name>
      <sym>Flag, Blue</sym>
      <extensions>
        <trp:ViaPoint>
          <trp:CalculationMode>FasterTime</trp:CalculationMode>
          <trp:ElevationMode>Standard</trp:ElevationMode>
        </trp:ViaPoint>
        <gpxx:RoutePointExtension>
          <gpxx:Subclass>000000000000FFFFFFFFFFFFFFFFFFFFFFFF</gpxx:Subclass>
          <gpxx:rpt lat="55.079515166580677" lon="-1.648175613954663">
            <gpxx:Subclass>0600BBE9D801F48B0C00211600007D007D00</gpxx:Subclass>
          </gpxx:rpt>
          <gpxx:rpt lat="55.079376697540283" lon="-1.649408340454102"/>
          <gpxx:rpt lat="55.079376697540283" lon="-1.649408340454102"/>
          <gpxx:rpt lat="55.079269409179688" lon="-1.651296615600586"/>
          <gpxx:rpt lat="55.079183578491211" lon="-1.651725769042969"/>
          <gpxx:rpt lat="55.079183578491211" lon="-1.652798652648926">
            <gpxx:Subclass>0600BBE9D80193958C001F001200EA86BD00</gpxx:Subclass>
          </gpxx:rpt>
          <gpxx:rpt lat="55.079183578491211" lon="-1.652798652648926"/>
          <gpxx:rpt lat="55.079140663146973" lon="-1.654322147369385"/>
          <gpxx:rpt lat="55.078775882720947" lon="-1.659815311431885">
            <gpxx:Subclass>0600BBE9D8013AA58C001F0012001C876701</gpxx:Subclass>
          </gpxx:rpt>
          <gpxx:rpt lat="55.078775882720947" lon="-1.659815311431885"/>
          <gpxx:rpt lat="55.078625679016113" lon="-1.661059856414795"/>
          <gpxx:rpt lat="55.078260898590088" lon="-1.663119792938232"/>
          <gpxx:rpt lat="55.07645845413208" lon="-1.672646999359131">
            <gpxx:Subclass>0600BBE9D80128A58C001F001200DA936601</gpxx:Subclass>
          </gpxx:rpt>
          <gpxx:rpt lat="55.07645845413208" lon="-1.672646999359131"/>
          <gpxx:rpt lat="55.075192451477051" lon="-1.679620742797852"/>
          <gpxx:rpt lat="55.074634552001953" lon="-1.681981086730957"/>
          <gpxx:rpt lat="55.073690414428711" lon="-1.685135364532471">
            <gpxx:Subclass>0600BBE9D80153A48C001F00120019942000</gpxx:Subclass>
          </gpxx:rpt>
          <gpxx:rpt lat="55.073690414428711" lon="-1.685135364532471"/>
          <gpxx:rpt lat="55.073497295379639" lon="-1.686294078826904">
            <gpxx:Subclass>0600BBE9D8017E9B8C001F0012000D946D00</gpxx:Subclass>
          </gpxx:rpt>
          <gpxx:rpt lat="55.073497295379639" lon="-1.686294078826904"/>
          <gpxx:rpt lat="55.073325634002686" lon="-1.687431335449219"/>
          <gpxx:rpt lat="55.07321834564209" lon="-1.68813943862915"/>
          <gpxx:rpt lat="55.073046684265137" lon="-1.689362525939941"/>
          <gpxx:rpt lat="55.072917938232422" lon="-1.690220832824707">
            <gpxx:Subclass>0600BBE9D801839A0C001F0012002B948A00</gpxx:Subclass>
          </gpxx:rpt>
          <gpxx:rpt lat="55.072917938232422" lon="-1.690220832824707"/>
          <gpxx:rpt lat="55.072832107543945" lon="-1.690950393676758"/>
          <gpxx:rpt lat="55.072832107543945" lon="-1.690950393676758"/>
          <gpxx:rpt lat="55.073068141937256" lon="-1.692023277282715"/>
          <gpxx:rpt lat="55.073239803314209" lon="-1.692495346069336"/>
          <gpxx:rpt lat="55.073840618133545" lon="-1.693696975708008"/>
          <gpxx:rpt lat="55.073947906494141" lon="-1.694040298461914"/>
          <gpxx:rpt lat="55.074055194854736" lon="-1.694769859313965">
            <gpxx:Subclass>0600BBE9D801FD940C001F0012002F7ED000</gpxx:Subclass>
          </gpxx:rpt>
          <gpxx:rpt lat="55.074055194854736" lon="-1.694769859313965"/>
          <gpxx:rpt lat="55.074226856231689" lon="-1.702558994293213">
            <gpxx:Subclass>0600BBE9D801508B0C001F001200457E0D03</gpxx:Subclass>
          </gpxx:rpt>
          <gpxx:rpt lat="55.074226856231689" lon="-1.702558994293213"/>
          <gpxx:rpt lat="55.074334144592285" lon="-1.713030338287354"/>
          <gpxx:rpt lat="55.074334144592285" lon="-1.719446182250977"/>
          <gpxx:rpt lat="55.074098110198975" lon="-1.725089550018311"/>
          <gpxx:rpt lat="55.074119567871094" lon="-1.725969314575195"/>
          <gpxx:rpt lat="55.074248313903809" lon="-1.727085113525391"/>
          <gpxx:rpt lat="55.074248313903809" lon="-1.727921962738037"/>
          <gpxx:rpt lat="55.074119567871094" lon="-1.729187965393066"/>
          <gpxx:rpt lat="55.073797702789307" lon="-1.731162071228027"/>
          <gpxx:rpt lat="55.073690414428711" lon="-1.731655597686768">
            <gpxx:Subclass>0600BBE9D801018B8C001F001200F77D4803</gpxx:Subclass>
          </gpxx:rpt>
          <gpxx:rpt lat="55.073690414428711" lon="-1.731655597686768"/>
          <gpxx:rpt lat="55.073518753051758" lon="-1.732192039489746"/>
          <gpxx:rpt lat="55.073325634002686" lon="-1.732556819915771"/>
          <gpxx:rpt lat="55.073025226593018" lon="-1.732921600341797"/>
          <gpxx:rpt lat="55.072638988494873" lon="-1.733200550079346"/>
          <gpxx:rpt lat="55.072338581085205" lon="-1.733286380767822"/>
          <gpxx:rpt lat="55.069913864135742" lon="-1.733243465423584"/>
          <gpxx:rpt lat="55.068111419677734" lon="-1.733458042144775"/>
          <gpxx:rpt lat="55.066609382629395" lon="-1.734209060668945"/>
          <gpxx:rpt lat="55.065193176269531" lon="-1.734530925750732"/>
          <gpxx:rpt lat="55.064678192138672" lon="-1.734809875488281"/>
          <gpxx:rpt lat="55.064120292663574" lon="-1.735281944274902"/>
          <gpxx:rpt lat="55.063776969909668" lon="-1.735732555389404"/>
          <gpxx:rpt lat="55.063412189483643" lon="-1.736483573913574"/>
          <gpxx:rpt lat="55.062854290008545" lon="-1.738221645355225"/>
          <gpxx:rpt lat="55.061631202697754" lon="-1.741032600402832"/>
          <gpxx:rpt lat="55.061159133911133" lon="-1.741654872894287"/>
          <gpxx:rpt lat="55.060880184173584" lon="-1.741890907287598"/>
          <gpxx:rpt lat="55.060279369354248" lon="-1.742212772369385"/>
          <gpxx:rpt lat="55.058069229125977" lon="-1.742727756500244">
            <gpxx:Subclass>0600BBE9D801B5938C001F001200827D2300</gpxx:Subclass>
          </gpxx:rpt>
          <gpxx:rpt lat="55.058069229125977" lon="-1.742727756500244"/>
          <gpxx:rpt lat="55.057318210601807" lon="-1.742856502532959">
            <gpxx:Subclass>0600BBE9D80103948C001F001200767D5900</gpxx:Subclass>
          </gpxx:rpt>
          <gpxx:rpt lat="55.057318210601807" lon="-1.742856502532959"/>
          <gpxx:rpt lat="55.055859088897705" lon="-1.742985248565674"/>
          <gpxx:rpt lat="55.055451393127441" lon="-1.743307113647461">
            <gpxx:Subclass>0600BBE9D801C1198B001F061200637D0500</gpxx:Subclass>
          </gpxx:rpt>
          <gpxx:rpt lat="55.055451393127441" lon="-1.743307113647461"/>
          <gpxx:rpt lat="55.055451393127441" lon="-1.743307113647461"/>
          <gpxx:rpt lat="55.055451393127441" lon="-1.743307113647461"/>
          <gpxx:rpt lat="55.055356174707413" lon="-1.74325087107718">
            <gpxx:Subclass>0600BBE9D801C1190B0021170000D7000500</gpxx:Subclass>
          </gpxx:rpt>
        </gpxx:RoutePointExtension>
      </extensions>
    </rtept>
    <rtept lat="55.055361036211252" lon="-1.74322597682476">
      <time>2025-03-10T17:40:46Z</time>
      <name>North Road (Ponteland)1</name>
      <sym>Flag, Blue</sym>
      <extensions>
        <trp:ShapingPoint/>
        <gpxx:RoutePointExtension>
          <gpxx:Subclass>000000000000FFFFFFFFFFFFFFFFFFFFFFFF</gpxx:Subclass>
          <gpxx:rpt lat="55.055356174707413" lon="-1.74325087107718">
            <gpxx:Subclass>0600BBE9D801C1190B0021160000D7001300</gpxx:Subclass>
          </gpxx:rpt>
          <gpxx:rpt lat="55.05497932434082" lon="-1.743028163909912"/>
          <gpxx:rpt lat="55.05497932434082" lon="-1.743028163909912"/>
          <gpxx:rpt lat="55.05497932434082" lon="-1.743028163909912"/>
          <gpxx:rpt lat="55.05497932434082" lon="-1.743028163909912">
            <gpxx:Subclass>0600BBE9D801C1198B001F0012003A7DC400</gpxx:Subclass>
          </gpxx:rpt>
          <gpxx:rpt lat="55.05497932434082" lon="-1.743028163909912"/>
          <gpxx:rpt lat="55.054850578308105" lon="-1.742985248565674"/>
          <gpxx:rpt lat="55.054121017456055" lon="-1.742899417877197"/>
          <gpxx:rpt lat="55.054121017456055" lon="-1.742899417877197"/>
          <gpxx:rpt lat="55.053520202636719" lon="-1.742792129516602"/>
          <gpxx:rpt lat="55.052661895751953" lon="-1.742620468139648"/>
          <gpxx:rpt lat="55.052533149719238" lon="-1.742599010467529"/>
          <gpxx:rpt lat="55.052018165588379" lon="-1.742448806762695"/>
          <gpxx:rpt lat="55.051567554473877" lon="-1.742362976074219"/>
          <gpxx:rpt lat="55.050795078277588" lon="-1.742405891418457">
            <gpxx:Subclass>0600BBE9D801DB26B2001F0010008DB22800</gpxx:Subclass>
          </gpxx:rpt>
          <gpxx:rpt lat="55.050795078277588" lon="-1.742405891418457"/>
          <gpxx:rpt lat="55.050280094146729" lon="-1.74232006072998"/>
          <gpxx:rpt lat="55.049979686737061" lon="-1.742041110992432">
            <gpxx:Subclass>0200BBE9D8019121B2001F024F00E2DA0300</gpxx:Subclass>
          </gpxx:rpt>
          <gpxx:rpt lat="55.049979686737061" lon="-1.742041110992432"/>
          <gpxx:rpt lat="55.049979686737061" lon="-1.742041110992432"/>
          <gpxx:rpt lat="55.049979686737061" lon="-1.742041110992432"/>
          <gpxx:rpt lat="55.049946159124374" lon="-1.74214169383049">
            <gpxx:Subclass>0200BBE9D801912132002117000026000300</gpxx:Subclass>
          </gpxx:rpt>
        </gpxx:RoutePointExtension>
      </extensions>
    </rtept>
    <rtept lat="55.049936017021537" lon="-1.742130964994431">
      <time>2025-03-10T17:40:46Z</time>
      <name>A696 (towards Jedburgh)1</name>
      <sym>Flag, Blue</sym>
      <extensions>
        <trp:ViaPoint>
          <trp:CalculationMode>FasterTime</trp:CalculationMode>
          <trp:ElevationMode>Standard</trp:ElevationMode>
        </trp:ViaPoint>
        <gpxx:RoutePointExtension>
          <gpxx:Subclass>000000000000FFFFFFFFFFFFFFFFFFFFFFFF</gpxx:Subclass>
          <gpxx:rpt lat="55.049946159124374" lon="-1.74214169383049">
            <gpxx:Subclass>0200BBE9D801912132002116000026002600</gpxx:Subclass>
          </gpxx:rpt>
          <gpxx:rpt lat="55.049936771392822" lon="-1.742169857025146"/>
          <gpxx:rpt lat="55.049936771392822" lon="-1.742169857025146"/>
          <gpxx:rpt lat="55.049593448638916" lon="-1.743435859680176">
            <gpxx:Subclass>0200BBE9D8014B28B2001F004F00B8DA0600</gpxx:Subclass>
          </gpxx:rpt>
          <gpxx:rpt lat="55.049593448638916" lon="-1.743435859680176"/>
          <gpxx:rpt lat="55.049571990966797" lon="-1.743650436401367">
            <gpxx:Subclass>0200BBE9D8016D24B2001F004F00CADA2700</gpxx:Subclass>
          </gpxx:rpt>
          <gpxx:rpt lat="55.049571990966797" lon="-1.743650436401367"/>
          <gpxx:rpt lat="55.04948616027832" lon="-1.744294166564941"/>
          <gpxx:rpt lat="55.049464702606201" lon="-1.744701862335205"/>
          <gpxx:rpt lat="55.049464702606201" lon="-1.745109558105469">
            <gpxx:Subclass>0200BBE9D8016B28B2001F004F009EDA0500</gpxx:Subclass>
          </gpxx:rpt>
          <gpxx:rpt lat="55.049464702606201" lon="-1.745109558105469"/>
          <gpxx:rpt lat="55.049464702606201" lon="-1.745281219482422">
            <gpxx:Subclass>0200BBE9D801C52132001F004F0083DABE00</gpxx:Subclass>
          </gpxx:rpt>
          <gpxx:rpt lat="55.049464702606201" lon="-1.745281219482422"/>
          <gpxx:rpt lat="55.049507617950439" lon="-1.746869087219238"/>
          <gpxx:rpt lat="55.049507617950439" lon="-1.746869087219238"/>
          <gpxx:rpt lat="55.049657821655273" lon="-1.748349666595459"/>
          <gpxx:rpt lat="55.050065517425537" lon="-1.752340793609619">
            <gpxx:Subclass>0200BBE9D801852732001F004F00F9DA0F00</gpxx:Subclass>
          </gpxx:rpt>
          <gpxx:rpt lat="55.050065517425537" lon="-1.752340793609619"/>
          <gpxx:rpt lat="55.050108432769775" lon="-1.752898693084717">
            <gpxx:Subclass>0200BBE9D8011823B2001F004F0040DB3100</gpxx:Subclass>
          </gpxx:rpt>
          <gpxx:rpt lat="55.050108432769775" lon="-1.752898693084717"/>
          <gpxx:rpt lat="55.050108432769775" lon="-1.754143238067627"/>
          <gpxx:rpt lat="55.050086975097656" lon="-1.754744052886963">
            <gpxx:Subclass>0200BBE9D8017421B2001F004F0056DB3E00</gpxx:Subclass>
          </gpxx:rpt>
          <gpxx:rpt lat="55.050086975097656" lon="-1.754744052886963"/>
          <gpxx:rpt lat="55.050044059753418" lon="-1.755194664001465"/>
          <gpxx:rpt lat="55.050086975097656" lon="-1.755709648132324"/>
          <gpxx:rpt lat="55.050151348114014" lon="-1.75605297088623"/>
          <gpxx:rpt lat="55.050323009490967" lon="-1.756439208984375"/>
          <gpxx:rpt lat="55.050537586212158" lon="-1.756739616394043">
            <gpxx:Subclass>0200BBE9D8013B2832001F004F006DDB0900</gpxx:Subclass>
          </gpxx:rpt>
          <gpxx:rpt lat="55.050537586212158" lon="-1.756739616394043"/>
          <gpxx:rpt lat="55.050709247589111" lon="-1.756932735443115">
            <gpxx:Subclass>0200BBE9D801972332001F004F00ADDB3A05</gpxx:Subclass>
          </gpxx:rpt>
          <gpxx:rpt lat="55.050709247589111" lon="-1.756932735443115"/>
          <gpxx:rpt lat="55.051116943359375" lon="-1.757383346557617"/>
          <gpxx:rpt lat="55.051631927490234" lon="-1.757876873016357"/>
          <gpxx:rpt lat="55.052640438079834" lon="-1.758928298950195"/>
          <gpxx:rpt lat="55.053670406341553" lon="-1.760451793670654"/>
          <gpxx:rpt lat="55.053670406341553" lon="-1.760451793670654"/>
          <gpxx:rpt lat="55.054335594177246" lon="-1.761589050292969"/>
          <gpxx:rpt lat="55.054636001586914" lon="-1.76231861114502"/>
          <gpxx:rpt lat="55.055065155029297" lon="-1.763627529144287"/>
          <gpxx:rpt lat="55.055172443389893" lon="-1.763970851898193"/>
          <gpxx:rpt lat="55.055751800537109" lon="-1.765236854553223"/>
          <gpxx:rpt lat="55.056867599487305" lon="-1.766781806945801"/>
          <gpxx:rpt lat="55.059571266174316" lon="-1.770858764648438"/>
          <gpxx:rpt lat="55.060451030731201" lon="-1.77253246307373"/>
          <gpxx:rpt lat="55.061094760894775" lon="-1.773626804351807"/>
          <gpxx:rpt lat="55.062124729156494" lon="-1.775429248809814"/>
          <gpxx:rpt lat="55.063691139221191" lon="-1.779055595397949"/>
          <gpxx:rpt lat="55.064034461975098" lon="-1.779806613922119"/>
          <gpxx:rpt lat="55.064828395843506" lon="-1.781609058380127"/>
          <gpxx:rpt lat="55.065793991088867" lon="-1.783218383789062"/>
          <gpxx:rpt lat="55.067317485809326" lon="-1.785728931427002"/>
          <gpxx:rpt lat="55.069420337677002" lon="-1.790170669555664"/>
          <gpxx:rpt lat="55.070106983184814" lon="-1.791436672210693"/>
          <gpxx:rpt lat="55.07072925567627" lon="-1.792402267456055">
            <gpxx:Subclass>0200BBE9D8018E3C32001F00500082025300</gpxx:Subclass>
          </gpxx:rpt>
          <gpxx:rpt lat="55.07072925567627" lon="-1.792402267456055"/>
          <gpxx:rpt lat="55.071265697479248" lon="-1.793153285980225"/>
          <gpxx:rpt lat="55.072188377380371" lon="-1.794226169586182">
            <gpxx:Subclass>0200BBE9D801CA3832001F00500070029807</gpxx:Subclass>
          </gpxx:rpt>
          <gpxx:rpt lat="55.072188377380371" lon="-1.794226169586182"/>
          <gpxx:rpt lat="55.076007843017578" lon="-1.798710823059082"/>
          <gpxx:rpt lat="55.077381134033203" lon="-1.800405979156494"/>
          <gpxx:rpt lat="55.077810287475586" lon="-1.801092624664307"/>
          <gpxx:rpt lat="55.078346729278564" lon="-1.802315711975098"/>
          <gpxx:rpt lat="55.078818798065186" lon="-1.803646087646484"/>
          <gpxx:rpt lat="55.079226493835449" lon="-1.804440021514893"/>
          <gpxx:rpt lat="55.080020427703857" lon="-1.805448532104492"/>
          <gpxx:rpt lat="55.081071853637695" lon="-1.806564331054688"/>
          <gpxx:rpt lat="55.081071853637695" lon="-1.806564331054688"/>
          <gpxx:rpt lat="55.082316398620605" lon="-1.807572841644287"/>
          <gpxx:rpt lat="55.083346366882324" lon="-1.808302402496338"/>
          <gpxx:rpt lat="55.084290504455566" lon="-1.808881759643555"/>
          <gpxx:rpt lat="55.085320472717285" lon="-1.809482574462891"/>
          <gpxx:rpt lat="55.086178779602051" lon="-1.809976100921631"/>
          <gpxx:rpt lat="55.08718729019165" lon="-1.81049108505249"/>
          <gpxx:rpt lat="55.088539123535156" lon="-1.811199188232422"/>
          <gpxx:rpt lat="55.089418888092041" lon="-1.81175708770752"/>
          <gpxx:rpt lat="55.092766284942627" lon="-1.814417839050293"/>
          <gpxx:rpt lat="55.093603134155273" lon="-1.815083026885986"/>
          <gpxx:rpt lat="55.095920562744141" lon="-1.816949844360352"/>
          <gpxx:rpt lat="55.096414089202881" lon="-1.817421913146973"/>
          <gpxx:rpt lat="55.097100734710693" lon="-1.818387508392334"/>
          <gpxx:rpt lat="55.09742259979248" lon="-1.81898832321167"/>
          <gpxx:rpt lat="55.097851753234863" lon="-1.819911003112793"/>
          <gpxx:rpt lat="55.100641250610352" lon="-1.826112270355225"/>
          <gpxx:rpt lat="55.100877285003662" lon="-1.826691627502441"/>
          <gpxx:rpt lat="55.101091861724854" lon="-1.827378273010254"/>
          <gpxx:rpt lat="55.101091861724854" lon="-1.827378273010254"/>
          <gpxx:rpt lat="55.101242065429688" lon="-1.828043460845947"/>
          <gpxx:rpt lat="55.10143518447876" lon="-1.829438209533691"/>
          <gpxx:rpt lat="55.101628303527832" lon="-1.831326484680176"/>
          <gpxx:rpt lat="55.101735591888428" lon="-1.833493709564209"/>
          <gpxx:rpt lat="55.101907253265381" lon="-1.835489273071289"/>
          <gpxx:rpt lat="55.101950168609619" lon="-1.836819648742676"/>
          <gpxx:rpt lat="55.101885795593262" lon="-1.838128566741943">
            <gpxx:Subclass>0200BBE9D801C22232001F004F00FFE21C00</gpxx:Subclass>
          </gpxx:rpt>
          <gpxx:rpt lat="55.101885795593262" lon="-1.838128566741943"/>
          <gpxx:rpt lat="55.101842880249023" lon="-1.839158535003662">
            <gpxx:Subclass>0200BBE9D801C22232001F004F00EBE21700</gpxx:Subclass>
          </gpxx:rpt>
          <gpxx:rpt lat="55.101842880249023" lon="-1.839158535003662"/>
          <gpxx:rpt lat="55.101842880249023" lon="-1.839158535003662"/>
          <gpxx:rpt lat="55.101842880249023" lon="-1.839158535003662"/>
          <gpxx:rpt lat="55.101820332929492" lon="-1.840017763897777">
            <gpxx:Subclass>0200BBE9D801C22232002117000032001700</gpxx:Subclass>
          </gpxx:rpt>
        </gpxx:RoutePointExtension>
      </extensions>
    </rtept>
    <rtept lat="55.101822009310126" lon="-1.840018015354872">
      <time>2025-03-10T17:40:46Z</time>
      <name>A696 (Belsay)</name>
      <sym>Flag, Blue</sym>
      <extensions>
        <trp:ShapingPoint/>
        <gpxx:RoutePointExtension>
          <gpxx:Subclass>000000000000FFFFFFFFFFFFFFFFFFFFFFFF</gpxx:Subclass>
          <gpxx:rpt lat="55.101820332929492" lon="-1.840017763897777">
            <gpxx:Subclass>0200BBE9D801C22232002116000032002100</gpxx:Subclass>
          </gpxx:rpt>
          <gpxx:rpt lat="55.101799964904785" lon="-1.840789318084717"/>
          <gpxx:rpt lat="55.101799964904785" lon="-1.840789318084717"/>
          <gpxx:rpt lat="55.101885795593262" lon="-1.841239929199219">
            <gpxx:Subclass>0200BBE9D801C22232001F004F00D4E1C500</gpxx:Subclass>
          </gpxx:rpt>
          <gpxx:rpt lat="55.101885795593262" lon="-1.841239929199219"/>
          <gpxx:rpt lat="55.101971626281738" lon="-1.841390132904053"/>
          <gpxx:rpt lat="55.102229118347168" lon="-1.841583251953125"/>
          <gpxx:rpt lat="55.1029372215271" lon="-1.842055320739746"/>
          <gpxx:rpt lat="55.103344917297363" lon="-1.842355728149414"/>
          <gpxx:rpt lat="55.104396343231201" lon="-1.843149662017822"/>
          <gpxx:rpt lat="55.104911327362061" lon="-1.843428611755371"/>
          <gpxx:rpt lat="55.105319023132324" lon="-1.843664646148682"/>
          <gpxx:rpt lat="55.105619430541992" lon="-1.84396505355835"/>
          <gpxx:rpt lat="55.105726718902588" lon="-1.844179630279541">
            <gpxx:Subclass>0200BBE9D801402332001F004F0062E23100</gpxx:Subclass>
          </gpxx:rpt>
          <gpxx:rpt lat="55.105726718902588" lon="-1.844179630279541"/>
          <gpxx:rpt lat="55.106112957000732" lon="-1.844887733459473"/>
          <gpxx:rpt lat="55.106220245361328" lon="-1.845166683197021"/>
          <gpxx:rpt lat="55.1064133644104" lon="-1.845574378967285">
            <gpxx:Subclass>0200BBE9D801542232001F004F0076E2AC01</gpxx:Subclass>
          </gpxx:rpt>
          <gpxx:rpt lat="55.1064133644104" lon="-1.845574378967285"/>
          <gpxx:rpt lat="55.10667085647583" lon="-1.846497058868408"/>
          <gpxx:rpt lat="55.106863975524902" lon="-1.84795618057251"/>
          <gpxx:rpt lat="55.107614994049072" lon="-1.854178905487061"/>
          <gpxx:rpt lat="55.108387470245361" lon="-1.860122680664062"/>
          <gpxx:rpt lat="55.10840892791748" lon="-1.860358715057373"/>
          <gpxx:rpt lat="55.108559131622314" lon="-1.861109733581543">
            <gpxx:Subclass>0200BBE9D8011D2432001F004F0074E1D802</gpxx:Subclass>
          </gpxx:rpt>
          <gpxx:rpt lat="55.108559131622314" lon="-1.861109733581543"/>
          <gpxx:rpt lat="55.109653472900391" lon="-1.867289543151855"/>
          <gpxx:rpt lat="55.110490322113037" lon="-1.871709823608398"/>
          <gpxx:rpt lat="55.112786293029785" lon="-1.882674694061279"/>
          <gpxx:rpt lat="55.113086700439453" lon="-1.884090900421143"/>
          <gpxx:rpt lat="55.113537311553955" lon="-1.88615083694458"/>
          <gpxx:rpt lat="55.113730430603027" lon="-1.886837482452393">
            <gpxx:Subclass>0200BBE9D8011D2432001F004F00AAED5E00</gpxx:Subclass>
          </gpxx:rpt>
          <gpxx:rpt lat="55.113730430603027" lon="-1.886837482452393"/>
          <gpxx:rpt lat="55.113987922668457" lon="-1.887609958648682"/>
          <gpxx:rpt lat="55.114245414733887" lon="-1.888425350189209"/>
          <gpxx:rpt lat="55.114352703094482" lon="-1.888940334320068"/>
          <gpxx:rpt lat="55.114502906799316" lon="-1.890077590942383">
            <gpxx:Subclass>0200BBE9D8011D2432001F004F0010EE9700</gpxx:Subclass>
          </gpxx:rpt>
          <gpxx:rpt lat="55.114502906799316" lon="-1.890077590942383"/>
          <gpxx:rpt lat="55.114824771881104" lon="-1.893038749694824"/>
          <gpxx:rpt lat="55.115211009979248" lon="-1.895613670349121">
            <gpxx:Subclass>0200BBE9D801243132001F004F0029EE4D00</gpxx:Subclass>
          </gpxx:rpt>
          <gpxx:rpt lat="55.115211009979248" lon="-1.895613670349121"/>
          <gpxx:rpt lat="55.115597248077393" lon="-1.898446083068848">
            <gpxx:Subclass>0200BBE9D8017C2F32001F004F003FEEBB01</gpxx:Subclass>
          </gpxx:rpt>
          <gpxx:rpt lat="55.115597248077393" lon="-1.898446083068848"/>
          <gpxx:rpt lat="55.115854740142822" lon="-1.900098323822021"/>
          <gpxx:rpt lat="55.116455554962158" lon="-1.902115345001221"/>
          <gpxx:rpt lat="55.116541385650635" lon="-1.90237283706665"/>
          <gpxx:rpt lat="55.118129253387451" lon="-1.906406879425049"/>
          <gpxx:rpt lat="55.118236541748047" lon="-1.906685829162598"/>
          <gpxx:rpt lat="55.118987560272217" lon="-1.908531188964844"/>
          <gpxx:rpt lat="55.119030475616455" lon="-1.908681392669678"/>
          <gpxx:rpt lat="55.120060443878174" lon="-1.910784244537354"/>
          <gpxx:rpt lat="55.120768547058105" lon="-1.912136077880859">
            <gpxx:Subclass>0200BBE9D8017C2F32001F004F003DE1B700</gpxx:Subclass>
          </gpxx:rpt>
          <gpxx:rpt lat="55.120768547058105" lon="-1.912136077880859"/>
          <gpxx:rpt lat="55.12089729309082" lon="-1.912393569946289"/>
          <gpxx:rpt lat="55.121283531188965" lon="-1.91312313079834"/>
          <gpxx:rpt lat="55.121798515319824" lon="-1.914196014404297"/>
          <gpxx:rpt lat="55.122056007385254" lon="-1.914947032928467"/>
          <gpxx:rpt lat="55.122592449188232" lon="-1.917650699615479"/>
          <gpxx:rpt lat="55.12265682220459" lon="-1.918015480041504">
            <gpxx:Subclass>0200BBE9D8017C2F32001F004F00DFE0220A</gpxx:Subclass>
          </gpxx:rpt>
          <gpxx:rpt lat="55.12265682220459" lon="-1.918015480041504"/>
          <gpxx:rpt lat="55.122807025909424" lon="-1.919775009155273"/>
          <gpxx:rpt lat="55.12315034866333" lon="-1.922414302825928"/>
          <gpxx:rpt lat="55.123364925384521" lon="-1.923401355743408"/>
          <gpxx:rpt lat="55.123708248138428" lon="-1.924688816070557"/>
          <gpxx:rpt lat="55.12415885925293" lon="-1.926040649414062"/>
          <gpxx:rpt lat="55.125918388366699" lon="-1.931233406066895"/>
          <gpxx:rpt lat="55.126776695251465" lon="-1.933915615081787"/>
          <gpxx:rpt lat="55.127291679382324" lon="-1.935567855834961"/>
          <gpxx:rpt lat="55.127763748168945" lon="-1.936876773834229"/>
          <gpxx:rpt lat="55.128428936004639" lon="-1.938464641571045"/>
          <gpxx:rpt lat="55.12890100479126" lon="-1.939902305603027"/>
          <gpxx:rpt lat="55.129115581512451" lon="-1.940696239471436"/>
          <gpxx:rpt lat="55.129415988922119" lon="-1.942348480224609"/>
          <gpxx:rpt lat="55.130059719085693" lon="-1.946039199829102"/>
          <gpxx:rpt lat="55.130424499511719" lon="-1.948506832122803"/>
          <gpxx:rpt lat="55.130918025970459" lon="-1.953034400939941"/>
          <gpxx:rpt lat="55.131261348724365" lon="-1.956231594085693"/>
          <gpxx:rpt lat="55.131261348724365" lon="-1.956231594085693"/>
          <gpxx:rpt lat="55.131411552429199" lon="-1.957283020019531"/>
          <gpxx:rpt lat="55.131690502166748" lon="-1.958377361297607"/>
          <gpxx:rpt lat="55.132012367248535" lon="-1.959235668182373"/>
          <gpxx:rpt lat="55.132784843444824" lon="-1.960844993591309"/>
          <gpxx:rpt lat="55.133943557739258" lon="-1.963140964508057"/>
          <gpxx:rpt lat="55.136775970458984" lon="-1.967668533325195"/>
          <gpxx:rpt lat="55.137012004852295" lon="-1.968119144439697"/>
          <gpxx:rpt lat="55.137248039245605" lon="-1.968591213226318"/>
          <gpxx:rpt lat="55.137484073638916" lon="-1.96929931640625"/>
          <gpxx:rpt lat="55.137977600097656" lon="-1.9710373878479"/>
          <gpxx:rpt lat="55.139050483703613" lon="-1.975822448730469"/>
          <gpxx:rpt lat="55.140724182128906" lon="-1.983075141906738"/>
          <gpxx:rpt lat="55.141496658325195" lon="-1.986358165740967"/>
          <gpxx:rpt lat="55.141775608062744" lon="-1.987259387969971"/>
          <gpxx:rpt lat="55.142183303833008" lon="-1.988375186920166"/>
          <gpxx:rpt lat="55.142462253570557" lon="-1.989061832427979"/>
          <gpxx:rpt lat="55.142548084259033" lon="-1.989233493804932"/>
          <gpxx:rpt lat="55.142741203308105" lon="-1.98976993560791"/>
          <gpxx:rpt lat="55.142998695373535" lon="-1.990370750427246"/>
          <gpxx:rpt lat="55.143256187438965" lon="-1.990928649902344"/>
          <gpxx:rpt lat="55.143535137176514" lon="-1.991314888000488"/>
          <gpxx:rpt lat="55.143599510192871" lon="-1.991379261016846"/>
          <gpxx:rpt lat="55.144822597503662" lon="-1.992108821868896"/>
          <gpxx:rpt lat="55.145144462585449" lon="-1.992301940917969"/>
          <gpxx:rpt lat="55.1458740234375" lon="-1.99277400970459"/>
          <gpxx:rpt lat="55.146389007568359" lon="-1.993288993835449"/>
          <gpxx:rpt lat="55.146925449371338" lon="-1.994168758392334"/>
          <gpxx:rpt lat="55.147354602813721" lon="-1.995177268981934"/>
          <gpxx:rpt lat="55.148856639862061" lon="-1.998739242553711"/>
          <gpxx:rpt lat="55.149264335632324" lon="-2.00000524520874">
            <gpxx:Subclass>0200BBE9D8017C2F3200211400008E0C0000</gpxx:Subclass>
          </gpxx:rpt>
          <gpxx:rpt lat="55.149264335632324" lon="-2.00000524520874">
            <gpxx:Subclass>0200A7E9D80164DA10001F001B000A1FFC01</gpxx:Subclass>
          </gpxx:rpt>
          <gpxx:rpt lat="55.149264335632324" lon="-2.00000524520874"/>
          <gpxx:rpt lat="55.151581764221191" lon="-2.008309364318848"/>
          <gpxx:rpt lat="55.151710510253906" lon="-2.008674144744873"/>
          <gpxx:rpt lat="55.152010917663574" lon="-2.009446620941162"/>
          <gpxx:rpt lat="55.152440071105957" lon="-2.010176181793213"/>
          <gpxx:rpt lat="55.153212547302246" lon="-2.011055946350098"/>
          <gpxx:rpt lat="55.154006481170654" lon="-2.011528015136719"/>
          <gpxx:rpt lat="55.15460729598999" lon="-2.011656761169434"/>
          <gpxx:rpt lat="55.155680179595947" lon="-2.011656761169434"/>
          <gpxx:rpt lat="55.156002044677734" lon="-2.011635303497314"/>
          <gpxx:rpt lat="55.156495571136475" lon="-2.011592388153076">
            <gpxx:Subclass>0200A7E9D80164DA10001F001B008D1E7000</gpxx:Subclass>
          </gpxx:rpt>
          <gpxx:rpt lat="55.156495571136475" lon="-2.011592388153076"/>
          <gpxx:rpt lat="55.157289505004883" lon="-2.011399269104004"/>
          <gpxx:rpt lat="55.157654285430908" lon="-2.011442184448242"/>
          <gpxx:rpt lat="55.157911777496338" lon="-2.011570930480957"/>
          <gpxx:rpt lat="55.158212184906006" lon="-2.011806964874268"/>
          <gpxx:rpt lat="55.158641338348389" lon="-2.012643814086914">
            <gpxx:Subclass>0200A7E9D80164DA10001F001B00701E3800</gpxx:Subclass>
          </gpxx:rpt>
          <gpxx:rpt lat="55.158641338348389" lon="-2.012643814086914"/>
          <gpxx:rpt lat="55.159435272216797" lon="-2.014188766479492">
            <gpxx:Subclass>0200A7E9D80164DA10001F001B00531E5100</gpxx:Subclass>
          </gpxx:rpt>
          <gpxx:rpt lat="55.159435272216797" lon="-2.014188766479492"/>
          <gpxx:rpt lat="55.160014629364014" lon="-2.015218734741211"/>
          <gpxx:rpt lat="55.160207748413086" lon="-2.015390396118164"/>
          <gpxx:rpt lat="55.16085147857666" lon="-2.015776634216309">
            <gpxx:Subclass>0200A7E9D80164DA10001F001B00371EFE00</gpxx:Subclass>
          </gpxx:rpt>
          <gpxx:rpt lat="55.16085147857666" lon="-2.015776634216309"/>
          <gpxx:rpt lat="55.163490772247314" lon="-2.01775074005127"/>
          <gpxx:rpt lat="55.164821147918701" lon="-2.018651962280273"/>
          <gpxx:rpt lat="55.165314674377441" lon="-2.01899528503418"/>
          <gpxx:rpt lat="55.165915489196777" lon="-2.019402980804443">
            <gpxx:Subclass>0200A7E9D801F1D710001F001B00431FF409</gpxx:Subclass>
          </gpxx:rpt>
          <gpxx:rpt lat="55.165915489196777" lon="-2.019402980804443"/>
          <gpxx:rpt lat="55.166709423065186" lon="-2.019960880279541"/>
          <gpxx:rpt lat="55.167653560638428" lon="-2.020626068115234"/>
          <gpxx:rpt lat="55.169177055358887" lon="-2.021913528442383"/>
          <gpxx:rpt lat="55.173254013061523" lon="-2.025883197784424"/>
          <gpxx:rpt lat="55.174155235290527" lon="-2.026891708374023"/>
          <gpxx:rpt lat="55.174455642700195" lon="-2.027320861816406"/>
          <gpxx:rpt lat="55.174691677093506" lon="-2.027750015258789"/>
          <gpxx:rpt lat="55.17507791519165" lon="-2.02871561050415"/>
          <gpxx:rpt lat="55.175936222076416" lon="-2.032041549682617"/>
          <gpxx:rpt lat="55.176215171813965" lon="-2.033028602600098"/>
          <gpxx:rpt lat="55.176880359649658" lon="-2.034745216369629"/>
          <gpxx:rpt lat="55.177223682403564" lon="-2.035453319549561"/>
          <gpxx:rpt lat="55.17758846282959" lon="-2.035946846008301"/>
          <gpxx:rpt lat="55.177931785583496" lon="-2.036290168762207"/>
          <gpxx:rpt lat="55.179154872894287" lon="-2.037191390991211"/>
          <gpxx:rpt lat="55.184562206268311" lon="-2.042040824890137"/>
          <gpxx:rpt lat="55.187351703643799" lon="-2.045581340789795"/>
          <gpxx:rpt lat="55.187480449676514" lon="-2.045753002166748"/>
          <gpxx:rpt lat="55.188145637512207" lon="-2.046675682067871"/>
          <gpxx:rpt lat="55.188467502593994" lon="-2.047233581542969"/>
          <gpxx:rpt lat="55.188703536987305" lon="-2.047834396362305"/>
          <gpxx:rpt lat="55.189003944396973" lon="-2.048799991607666"/>
          <gpxx:rpt lat="55.189003944396973" lon="-2.048799991607666"/>
          <gpxx:rpt lat="55.189454555511475" lon="-2.050623893737793"/>
          <gpxx:rpt lat="55.191428661346436" lon="-2.059249877929688"/>
          <gpxx:rpt lat="55.191643238067627" lon="-2.060708999633789"/>
          <gpxx:rpt lat="55.191750526428223" lon="-2.063498497009277"/>
          <gpxx:rpt lat="55.191750526428223" lon="-2.063498497009277"/>
          <gpxx:rpt lat="55.191836357116699" lon="-2.065129280090332"/>
          <gpxx:rpt lat="55.191943645477295" lon="-2.067553997039795"/>
          <gpxx:rpt lat="55.192050933837891" lon="-2.06866979598999"/>
          <gpxx:rpt lat="55.192179679870605" lon="-2.069334983825684"/>
          <gpxx:rpt lat="55.192351341247559" lon="-2.070000171661377"/>
          <gpxx:rpt lat="55.192651748657227" lon="-2.0709228515625"/>
          <gpxx:rpt lat="55.194947719573975" lon="-2.077596187591553"/>
          <gpxx:rpt lat="55.197629928588867" lon="-2.086629867553711"/>
          <gpxx:rpt lat="55.197629928588867" lon="-2.086629867553711"/>
          <gpxx:rpt lat="55.197930335998535" lon="-2.087552547454834"/>
          <gpxx:rpt lat="55.198016166687012" lon="-2.087874412536621"/>
          <gpxx:rpt lat="55.198209285736084" lon="-2.08838939666748"/>
          <gpxx:rpt lat="55.198616981506348" lon="-2.089204788208008">
            <gpxx:Subclass>0200A7E9D8016BD910001F001B00D3202102</gpxx:Subclass>
          </gpxx:rpt>
          <gpxx:rpt lat="55.198616981506348" lon="-2.089204788208008"/>
          <gpxx:rpt lat="55.199217796325684" lon="-2.089912891387939"/>
          <gpxx:rpt lat="55.200784206390381" lon="-2.091007232666016"/>
          <gpxx:rpt lat="55.203509330749512" lon="-2.092831134796143"/>
          <gpxx:rpt lat="55.204281806945801" lon="-2.09338903427124"/>
          <gpxx:rpt lat="55.205140113830566" lon="-2.094118595123291"/>
          <gpxx:rpt lat="55.205440521240234" lon="-2.094526290893555"/>
          <gpxx:rpt lat="55.206234455108643" lon="-2.095942497253418"/>
          <gpxx:rpt lat="55.206921100616455" lon="-2.097358703613281"/>
          <gpxx:rpt lat="55.207328796386719" lon="-2.098710536956787"/>
          <gpxx:rpt lat="55.207564830780029" lon="-2.100105285644531"/>
          <gpxx:rpt lat="55.207650661468506" lon="-2.100620269775391">
            <gpxx:Subclass>0200A7E9D8016BD910001F001B00E820CD00</gpxx:Subclass>
          </gpxx:rpt>
          <gpxx:rpt lat="55.207650661468506" lon="-2.100620269775391"/>
          <gpxx:rpt lat="55.207693576812744" lon="-2.101027965545654"/>
          <gpxx:rpt lat="55.208015441894531" lon="-2.103259563446045"/>
          <gpxx:rpt lat="55.20829439163208" lon="-2.104010581970215"/>
          <gpxx:rpt lat="55.208466053009033" lon="-2.104268074035645"/>
          <gpxx:rpt lat="55.208766460418701" lon="-2.104525566101074"/>
          <gpxx:rpt lat="55.209732055664062" lon="-2.105104923248291"/>
          <gpxx:rpt lat="55.209860801696777" lon="-2.105190753936768"/>
          <gpxx:rpt lat="55.210440158843994" lon="-2.105555534362793">
            <gpxx:Subclass>0200A7E9D8016BD910001F001B004E21CD01</gpxx:Subclass>
          </gpxx:rpt>
          <gpxx:rpt lat="55.210440158843994" lon="-2.105555534362793"/>
          <gpxx:rpt lat="55.21104097366333" lon="-2.105984687805176"/>
          <gpxx:rpt lat="55.211405754089355" lon="-2.106478214263916"/>
          <gpxx:rpt lat="55.211727619171143" lon="-2.107315063476562"/>
          <gpxx:rpt lat="55.212006568908691" lon="-2.108559608459473"/>
          <gpxx:rpt lat="55.212070941925049" lon="-2.108795642852783"/>
          <gpxx:rpt lat="55.21228551864624" lon="-2.109718322753906"/>
          <gpxx:rpt lat="55.212478637695312" lon="-2.110104560852051"/>
          <gpxx:rpt lat="55.212693214416504" lon="-2.110319137573242"/>
          <gpxx:rpt lat="55.212886333465576" lon="-2.110426425933838"/>
          <gpxx:rpt lat="55.213165283203125" lon="-2.110447883605957"/>
          <gpxx:rpt lat="55.21378755569458" lon="-2.109954357147217"/>
          <gpxx:rpt lat="55.214452743530273" lon="-2.109224796295166"/>
          <gpxx:rpt lat="55.214817523956299" lon="-2.108924388885498"/>
          <gpxx:rpt lat="55.215160846710205" lon="-2.108838558197021"/>
          <gpxx:rpt lat="55.215461254119873" lon="-2.108924388885498"/>
          <gpxx:rpt lat="55.215632915496826" lon="-2.109074592590332"/>
          <gpxx:rpt lat="55.21578311920166" lon="-2.109310626983643"/>
          <gpxx:rpt lat="55.215933322906494" lon="-2.109739780426025"/>
          <gpxx:rpt lat="55.215997695922852" lon="-2.110683917999268"/>
          <gpxx:rpt lat="55.215997695922852" lon="-2.111585140228271"/>
          <gpxx:rpt lat="55.215954780578613" lon="-2.112829685211182"/>
          <gpxx:rpt lat="55.216019153594971" lon="-2.113559246063232"/>
          <gpxx:rpt lat="55.216104984283447" lon="-2.114031314849854">
            <gpxx:Subclass>0200A7E9D801ACDA10001F001B000D226C00</gpxx:Subclass>
          </gpxx:rpt>
          <gpxx:rpt lat="55.216104984283447" lon="-2.114031314849854"/>
          <gpxx:rpt lat="55.216341018676758" lon="-2.114846706390381"/>
          <gpxx:rpt lat="55.216469764709473" lon="-2.115318775177002"/>
          <gpxx:rpt lat="55.21679162979126" lon="-2.116563320159912"/>
          <gpxx:rpt lat="55.217049121856689" lon="-2.117764949798584">
            <gpxx:Subclass>0200A7E9D801D1D910001F001B006D222304</gpxx:Subclass>
          </gpxx:rpt>
          <gpxx:rpt lat="55.217049121856689" lon="-2.117764949798584"/>
          <gpxx:rpt lat="55.217156410217285" lon="-2.118558883666992"/>
          <gpxx:rpt lat="55.217435359954834" lon="-2.120447158813477"/>
          <gpxx:rpt lat="55.217564105987549" lon="-2.121798992156982"/>
          <gpxx:rpt lat="55.217821598052979" lon="-2.128365039825439"/>
          <gpxx:rpt lat="55.217928886413574" lon="-2.129437923431396"/>
          <gpxx:rpt lat="55.218250751495361" lon="-2.131433486938477"/>
          <gpxx:rpt lat="55.218873023986816" lon="-2.133965492248535"/>
          <gpxx:rpt lat="55.219130516052246" lon="-2.13484525680542"/>
          <gpxx:rpt lat="55.219559669494629" lon="-2.135939598083496"/>
          <gpxx:rpt lat="55.219902992248535" lon="-2.136604785919189"/>
          <gpxx:rpt lat="55.221126079559326" lon="-2.138385772705078"/>
          <gpxx:rpt lat="55.223250389099121" lon="-2.141304016113281"/>
          <gpxx:rpt lat="55.223593711853027" lon="-2.14184045791626"/>
          <gpxx:rpt lat="55.223937034606934" lon="-2.142505645751953"/>
          <gpxx:rpt lat="55.224430561065674" lon="-2.143986225128174"/>
          <gpxx:rpt lat="55.224559307098389" lon="-2.144758701324463"/>
          <gpxx:rpt lat="55.224752426147461" lon="-2.147033214569092"/>
          <gpxx:rpt lat="55.225181579589844" lon="-2.151753902435303"/>
          <gpxx:rpt lat="55.225288867950439" lon="-2.152869701385498">
            <gpxx:Subclass>0200A7E9D801D1D910001F001B0003235201</gpxx:Subclass>
          </gpxx:rpt>
          <gpxx:rpt lat="55.225288867950439" lon="-2.152869701385498"/>
          <gpxx:rpt lat="55.225331783294678" lon="-2.153599262237549"/>
          <gpxx:rpt lat="55.225417613983154" lon="-2.154371738433838"/>
          <gpxx:rpt lat="55.225567817687988" lon="-2.155423164367676"/>
          <gpxx:rpt lat="55.225760936737061" lon="-2.155659198760986"/>
          <gpxx:rpt lat="55.226297378540039" lon="-2.156002521514893"/>
          <gpxx:rpt lat="55.227112770080566" lon="-2.156624794006348"/>
          <gpxx:rpt lat="55.227541923522949" lon="-2.15756893157959"/>
          <gpxx:rpt lat="55.22777795791626" lon="-2.158148288726807"/>
          <gpxx:rpt lat="55.228507518768311" lon="-2.160036563873291"/>
          <gpxx:rpt lat="55.228550434112549" lon="-2.16031551361084"/>
          <gpxx:rpt lat="55.228550434112549" lon="-2.161881923675537"/>
          <gpxx:rpt lat="55.228614807128906" lon="-2.162911891937256">
            <gpxx:Subclass>0200A7E9D801D1D910001F001B00723B7100</gpxx:Subclass>
          </gpxx:rpt>
          <gpxx:rpt lat="55.228614807128906" lon="-2.162911891937256"/>
          <gpxx:rpt lat="55.228850841522217" lon="-2.164843082427979"/>
          <gpxx:rpt lat="55.22902250289917" lon="-2.166130542755127"/>
          <gpxx:rpt lat="55.229172706604004" lon="-2.167074680328369">
            <gpxx:Subclass>0200A7E9D801D1D910001F001B00A33B6000</gpxx:Subclass>
          </gpxx:rpt>
          <gpxx:rpt lat="55.229172706604004" lon="-2.167074680328369"/>
          <gpxx:rpt lat="55.229644775390625" lon="-2.170379161834717"/>
          <gpxx:rpt lat="55.229687690734863" lon="-2.170572280883789">
            <gpxx:Subclass>0200A7E9D801D1D910001F001B00D43B4C00</gpxx:Subclass>
          </gpxx:rpt>
          <gpxx:rpt lat="55.229687690734863" lon="-2.170572280883789"/>
          <gpxx:rpt lat="55.229752063751221" lon="-2.170872688293457"/>
          <gpxx:rpt lat="55.229988098144531" lon="-2.172117233276367"/>
          <gpxx:rpt lat="55.230309963226318" lon="-2.173211574554443">
            <gpxx:Subclass>0200A7E9D80133E310001F001B00093C6900</gpxx:Subclass>
          </gpxx:rpt>
          <gpxx:rpt lat="55.230309963226318" lon="-2.173211574554443"/>
          <gpxx:rpt lat="55.230824947357178" lon="-2.17479944229126"/>
          <gpxx:rpt lat="55.231168270111084" lon="-2.175915241241455"/>
          <gpxx:rpt lat="55.231339931488037" lon="-2.176709175109863">
            <gpxx:Subclass>0500A7E9D80197678D001F061B002D401200</gpxx:Subclass>
          </gpxx:rpt>
          <gpxx:rpt lat="55.231339931488037" lon="-2.176709175109863"/>
          <gpxx:rpt lat="55.231339931488037" lon="-2.176709175109863"/>
          <gpxx:rpt lat="55.231339931488037" lon="-2.176709175109863"/>
          <gpxx:rpt lat="55.2309515979141" lon="-2.176802549511194">
            <gpxx:Subclass>0500A7E9D80197670D002117000007001200</gpxx:Subclass>
          </gpxx:rpt>
        </gpxx:RoutePointExtension>
      </extensions>
    </rtept>
    <rtept lat="55.230948999524117" lon="-2.176768016070127">
      <time>2025-03-10T17:40:46Z</time>
      <name>B6320 (towards Bellingham)</name>
      <sym>Flag, Blue</sym>
      <extensions>
        <trp:ViaPoint>
          <trp:CalculationMode>FasterTime</trp:CalculationMode>
          <trp:ElevationMode>Standard</trp:ElevationMode>
        </trp:ViaPoint>
        <gpxx:RoutePointExtension>
          <gpxx:Subclass>000000000000FFFFFFFFFFFFFFFFFFFFFFFF</gpxx:Subclass>
          <gpxx:rpt lat="55.2309515979141" lon="-2.176802549511194">
            <gpxx:Subclass>0500A7E9D80197670D002116000007000700</gpxx:Subclass>
          </gpxx:rpt>
          <gpxx:rpt lat="55.230803489685059" lon="-2.176837921142578"/>
          <gpxx:rpt lat="55.230803489685059" lon="-2.176837921142578"/>
          <gpxx:rpt lat="55.230803489685059" lon="-2.176837921142578"/>
          <gpxx:rpt lat="55.230803489685059" lon="-2.176837921142578">
            <gpxx:Subclass>0500A7E9D801B2678D001F001300B9E30B00</gpxx:Subclass>
          </gpxx:rpt>
          <gpxx:rpt lat="55.230803489685059" lon="-2.176837921142578"/>
          <gpxx:rpt lat="55.230588912963867" lon="-2.176966667175293">
            <gpxx:Subclass>0500A7E9D80158668D001F001300A6E37700</gpxx:Subclass>
          </gpxx:rpt>
          <gpxx:rpt lat="55.230588912963867" lon="-2.176966667175293"/>
          <gpxx:rpt lat="55.229816436767578" lon="-2.17754602432251"/>
          <gpxx:rpt lat="55.229387283325195" lon="-2.177417278289795"/>
          <gpxx:rpt lat="55.229086875915527" lon="-2.177267074584961"/>
          <gpxx:rpt lat="55.228507518768311" lon="-2.176773548126221"/>
          <gpxx:rpt lat="55.228314399719238" lon="-2.176730632781982"/>
          <gpxx:rpt lat="55.228164196014404" lon="-2.17679500579834">
            <gpxx:Subclass>0500A7E9D80125660D001F00130048E28103</gpxx:Subclass>
          </gpxx:rpt>
          <gpxx:rpt lat="55.228164196014404" lon="-2.17679500579834"/>
          <gpxx:rpt lat="55.227949619293213" lon="-2.177009582519531"/>
          <gpxx:rpt lat="55.227670669555664" lon="-2.177331447601318"/>
          <gpxx:rpt lat="55.226619243621826" lon="-2.178061008453369"/>
          <gpxx:rpt lat="55.22601842880249" lon="-2.178833484649658"/>
          <gpxx:rpt lat="55.225181579589844" lon="-2.180635929107666"/>
          <gpxx:rpt lat="55.22376537322998" lon="-2.183704376220703"/>
          <gpxx:rpt lat="55.223336219787598" lon="-2.184154987335205"/>
          <gpxx:rpt lat="55.223186016082764" lon="-2.184262275695801"/>
          <gpxx:rpt lat="55.221662521362305" lon="-2.185313701629639"/>
          <gpxx:rpt lat="55.220589637756348" lon="-2.185420989990234"/>
          <gpxx:rpt lat="55.21902322769165" lon="-2.186837196350098"/>
          <gpxx:rpt lat="55.218701362609863" lon="-2.187137603759766"/>
          <gpxx:rpt lat="55.218400955200195" lon="-2.18752384185791"/>
          <gpxx:rpt lat="55.218122005462646" lon="-2.188296318054199"/>
          <gpxx:rpt lat="55.218057632446289" lon="-2.188639640808105"/>
          <gpxx:rpt lat="55.218057632446289" lon="-2.188918590545654"/>
          <gpxx:rpt lat="55.218100547790527" lon="-2.189240455627441"/>
          <gpxx:rpt lat="55.218551158905029" lon="-2.190592288970947"/>
          <gpxx:rpt lat="55.218551158905029" lon="-2.190592288970947"/>
          <gpxx:rpt lat="55.21904468536377" lon="-2.192201614379883"/>
          <gpxx:rpt lat="55.219087600708008" lon="-2.192609310150146"/>
          <gpxx:rpt lat="55.219151973724365" lon="-2.198660373687744"/>
          <gpxx:rpt lat="55.219109058380127" lon="-2.199668884277344">
            <gpxx:Subclass>0500A7E9D80190718D001F001B006B3C5808</gpxx:Subclass>
          </gpxx:rpt>
          <gpxx:rpt lat="55.219109058380127" lon="-2.199668884277344"/>
          <gpxx:rpt lat="55.218937397003174" lon="-2.199990749359131"/>
          <gpxx:rpt lat="55.218079090118408" lon="-2.201192378997803"/>
          <gpxx:rpt lat="55.214238166809082" lon="-2.206878662109375"/>
          <gpxx:rpt lat="55.211620330810547" lon="-2.209732532501221"/>
          <gpxx:rpt lat="55.20979642868042" lon="-2.211921215057373"/>
          <gpxx:rpt lat="55.209367275238037" lon="-2.212328910827637"/>
          <gpxx:rpt lat="55.208895206451416" lon="-2.212629318237305"/>
          <gpxx:rpt lat="55.208895206451416" lon="-2.212629318237305"/>
          <gpxx:rpt lat="55.204410552978516" lon="-2.214839458465576"/>
          <gpxx:rpt lat="55.203359127044678" lon="-2.215461730957031"/>
          <gpxx:rpt lat="55.202629566192627" lon="-2.21623420715332"/>
          <gpxx:rpt lat="55.199131965637207" lon="-2.22074031829834"/>
          <gpxx:rpt lat="55.196599960327148" lon="-2.224130630493164"/>
          <gpxx:rpt lat="55.194690227508545" lon="-2.227263450622559"/>
          <gpxx:rpt lat="55.194454193115234" lon="-2.227842807769775"/>
          <gpxx:rpt lat="55.194132328033447" lon="-2.228915691375732"/>
          <gpxx:rpt lat="55.193789005279541" lon="-2.230739593505859"/>
          <gpxx:rpt lat="55.193488597869873" lon="-2.232928276062012"/>
          <gpxx:rpt lat="55.19331693649292" lon="-2.234086990356445"/>
          <gpxx:rpt lat="55.193188190460205" lon="-2.234559059143066"/>
          <gpxx:rpt lat="55.192973613739014" lon="-2.234988212585449"/>
          <gpxx:rpt lat="55.192394256591797" lon="-2.235803604125977"/>
          <gpxx:rpt lat="55.192115306854248" lon="-2.236340045928955"/>
          <gpxx:rpt lat="55.191943645477295" lon="-2.23696231842041"/>
          <gpxx:rpt lat="55.191729068756104" lon="-2.238142490386963"/>
          <gpxx:rpt lat="55.191600322723389" lon="-2.238979339599609"/>
          <gpxx:rpt lat="55.191600322723389" lon="-2.238979339599609"/>
          <gpxx:rpt lat="55.190505981445312" lon="-2.245159149169922"/>
          <gpxx:rpt lat="55.18857479095459" lon="-2.253549098968506">
            <gpxx:Subclass>0500A7E9D80190718D001F00130031FD7400</gpxx:Subclass>
          </gpxx:rpt>
          <gpxx:rpt lat="55.18857479095459" lon="-2.253549098968506"/>
          <gpxx:rpt lat="55.188102722167969" lon="-2.255458831787109"/>
          <gpxx:rpt lat="55.187308788299561" lon="-2.257218360900879">
            <gpxx:Subclass>0500A7E9D80190718D001F00130012FD1901</gpxx:Subclass>
          </gpxx:rpt>
          <gpxx:rpt lat="55.187308788299561" lon="-2.257218360900879"/>
          <gpxx:rpt lat="55.186042785644531" lon="-2.259814739227295"/>
          <gpxx:rpt lat="55.185613632202148" lon="-2.260458469390869"/>
          <gpxx:rpt lat="55.184991359710693" lon="-2.261166572570801"/>
          <gpxx:rpt lat="55.184347629547119" lon="-2.261788845062256"/>
          <gpxx:rpt lat="55.182502269744873" lon="-2.263269424438477">
            <gpxx:Subclass>0600A7E9D80132700D001F021300A5FD0C00</gpxx:Subclass>
          </gpxx:rpt>
          <gpxx:rpt lat="55.182502269744873" lon="-2.263269424438477"/>
          <gpxx:rpt lat="55.182502269744873" lon="-2.263269424438477"/>
          <gpxx:rpt lat="55.182502269744873" lon="-2.263269424438477"/>
          <gpxx:rpt lat="55.182635122910142" lon="-2.263656836003065">
            <gpxx:Subclass>0600A7E9D80132700D00211700000C000C00</gpxx:Subclass>
          </gpxx:rpt>
        </gpxx:RoutePointExtension>
      </extensions>
    </rtept>
    <rtept lat="55.182598996907473" lon="-2.263694973662496">
      <time>2025-03-10T17:40:46Z</time>
      <name>Road (to Kielder)</name>
      <sym>Flag, Blue</sym>
      <extensions>
        <trp:ViaPoint>
          <trp:CalculationMode>FasterTime</trp:CalculationMode>
          <trp:ElevationMode>Standard</trp:ElevationMode>
        </trp:ViaPoint>
        <gpxx:RoutePointExtension>
          <gpxx:Subclass>000000000000FFFFFFFFFFFFFFFFFFFFFFFF</gpxx:Subclass>
          <gpxx:rpt lat="55.182635122910142" lon="-2.263656836003065">
            <gpxx:Subclass>0600A7E9D80132700D00211600000C004E02</gpxx:Subclass>
          </gpxx:rpt>
          <gpxx:rpt lat="55.183510780334473" lon="-2.266209125518799"/>
          <gpxx:rpt lat="55.183510780334473" lon="-2.266209125518799"/>
          <gpxx:rpt lat="55.185120105743408" lon="-2.273397445678711"/>
          <gpxx:rpt lat="55.185656547546387" lon="-2.27665901184082"/>
          <gpxx:rpt lat="55.186450481414795" lon="-2.282001972198486"/>
          <gpxx:rpt lat="55.186922550201416" lon="-2.2841477394104"/>
          <gpxx:rpt lat="55.186922550201416" lon="-2.28440523147583">
            <gpxx:Subclass>0600A7E9D80132700D001F000D00472BC203</gpxx:Subclass>
          </gpxx:rpt>
          <gpxx:rpt lat="55.186922550201416" lon="-2.28440523147583"/>
          <gpxx:rpt lat="55.186922550201416" lon="-2.28440523147583"/>
          <gpxx:rpt lat="55.186922550201416" lon="-2.284748554229736"/>
          <gpxx:rpt lat="55.186858177185059" lon="-2.285027503967285"/>
          <gpxx:rpt lat="55.184197425842285" lon="-2.292087078094482"/>
          <gpxx:rpt lat="55.181343555450439" lon="-2.300305366516113"/>
          <gpxx:rpt lat="55.180120468139648" lon="-2.303674221038818"/>
          <gpxx:rpt lat="55.178511142730713" lon="-2.307107448577881"/>
          <gpxx:rpt lat="55.178124904632568" lon="-2.309317588806152"/>
          <gpxx:rpt lat="55.178210735321045" lon="-2.310347557067871"/>
          <gpxx:rpt lat="55.178124904632568" lon="-2.311184406280518"/>
          <gpxx:rpt lat="55.177931785583496" lon="-2.311656475067139"/>
          <gpxx:rpt lat="55.17758846282959" lon="-2.312257289886475"/>
          <gpxx:rpt lat="55.176966190338135" lon="-2.312986850738525"/>
          <gpxx:rpt lat="55.17608642578125" lon="-2.313587665557861"/>
          <gpxx:rpt lat="55.175914764404297" lon="-2.313845157623291">
            <gpxx:Subclass>0600A7E9D80172A789001F000D00BA29C000</gpxx:Subclass>
          </gpxx:rpt>
          <gpxx:rpt lat="55.175914764404297" lon="-2.313845157623291"/>
          <gpxx:rpt lat="55.175850391387939" lon="-2.313995361328125"/>
          <gpxx:rpt lat="55.175786018371582" lon="-2.314403057098389"/>
          <gpxx:rpt lat="55.175271034240723" lon="-2.320926189422607">
            <gpxx:Subclass>0600A7E9D801279F89001F000D00C7290D00</gpxx:Subclass>
          </gpxx:rpt>
          <gpxx:rpt lat="55.175271034240723" lon="-2.320926189422607"/>
          <gpxx:rpt lat="55.175271034240723" lon="-2.320926189422607"/>
          <gpxx:rpt lat="55.175271034240723" lon="-2.320926189422607"/>
          <gpxx:rpt lat="55.17502217553556" lon="-2.321113524958491">
            <gpxx:Subclass>0600A7E9D801279F0900211700005D010D00</gpxx:Subclass>
          </gpxx:rpt>
        </gpxx:RoutePointExtension>
      </extensions>
    </rtept>
    <rtept lat="55.175004992634058" lon="-2.321043033152819">
      <time>2025-03-10T17:40:46Z</time>
      <name>Road (to Kielder Water and Forest)</name>
      <sym>Flag, Blue</sym>
      <extensions>
        <trp:ViaPoint>
          <trp:CalculationMode>FasterTime</trp:CalculationMode>
          <trp:ElevationMode>Standard</trp:ElevationMode>
        </trp:ViaPoint>
        <gpxx:RoutePointExtension>
          <gpxx:Subclass>000000000000FFFFFFFFFFFFFFFFFFFFFFFF</gpxx:Subclass>
          <gpxx:rpt lat="55.17502217553556" lon="-2.321113524958491">
            <gpxx:Subclass>0600A7E9D801279F0900211600005D01CC00</gpxx:Subclass>
          </gpxx:rpt>
          <gpxx:rpt lat="55.173189640045166" lon="-2.322492599487305"/>
          <gpxx:rpt lat="55.173189640045166" lon="-2.322492599487305"/>
          <gpxx:rpt lat="55.17209529876709" lon="-2.323222160339355"/>
          <gpxx:rpt lat="55.170893669128418" lon="-2.323329448699951">
            <gpxx:Subclass>0600A7E9D801279F89001F000D00DA299100</gpxx:Subclass>
          </gpxx:rpt>
          <gpxx:rpt lat="55.170893669128418" lon="-2.323329448699951"/>
          <gpxx:rpt lat="55.17033576965332" lon="-2.323458194732666"/>
          <gpxx:rpt lat="55.168898105621338" lon="-2.324423789978027"/>
          <gpxx:rpt lat="55.168190002441406" lon="-2.324531078338623"/>
          <gpxx:rpt lat="55.167889595031738" lon="-2.32459545135498">
            <gpxx:Subclass>0600A7E9D8015CA789001F000D00F6291400</gpxx:Subclass>
          </gpxx:rpt>
          <gpxx:rpt lat="55.167889595031738" lon="-2.32459545135498"/>
          <gpxx:rpt lat="55.167460441589355" lon="-2.324702739715576">
            <gpxx:Subclass>0600A7E9D8014CA789001F000D00032A3300</gpxx:Subclass>
          </gpxx:rpt>
          <gpxx:rpt lat="55.167460441589355" lon="-2.324702739715576"/>
          <gpxx:rpt lat="55.167160034179688" lon="-2.324810028076172"/>
          <gpxx:rpt lat="55.166516304016113" lon="-2.325561046600342">
            <gpxx:Subclass>0600A7E9D8014F9F89001F000D00102A4F00</gpxx:Subclass>
          </gpxx:rpt>
          <gpxx:rpt lat="55.166516304016113" lon="-2.325561046600342"/>
          <gpxx:rpt lat="55.165228843688965" lon="-2.327256202697754"/>
          <gpxx:rpt lat="55.165164470672607" lon="-2.327320575714111">
            <gpxx:Subclass>0600A7E9D801C1728D001F000D00312A1700</gpxx:Subclass>
          </gpxx:rpt>
          <gpxx:rpt lat="55.165164470672607" lon="-2.327320575714111"/>
          <gpxx:rpt lat="55.164778232574463" lon="-2.32785701751709">
            <gpxx:Subclass>0500A7E9D80154698D001F001300F4FC8300</gpxx:Subclass>
          </gpxx:rpt>
          <gpxx:rpt lat="55.164778232574463" lon="-2.32785701751709"/>
          <gpxx:rpt lat="55.16385555267334" lon="-2.328543663024902"/>
          <gpxx:rpt lat="55.163705348968506" lon="-2.328779697418213"/>
          <gpxx:rpt lat="55.163576602935791" lon="-2.329187393188477"/>
          <gpxx:rpt lat="55.163404941558838" lon="-2.330710887908936"/>
          <gpxx:rpt lat="55.163211822509766" lon="-2.331397533416748">
            <gpxx:Subclass>0500A7E9D80154698D001F0013000EFC5600</gpxx:Subclass>
          </gpxx:rpt>
          <gpxx:rpt lat="55.163211822509766" lon="-2.331397533416748"/>
          <gpxx:rpt lat="55.162804126739502" lon="-2.332427501678467"/>
          <gpxx:rpt lat="55.162353515625" lon="-2.333006858825684"/>
          <gpxx:rpt lat="55.162010192871094" lon="-2.333478927612305"/>
          <gpxx:rpt lat="55.161945819854736" lon="-2.333650588989258">
            <gpxx:Subclass>0500A7E9D80154698D001F021300CCFB4501</gpxx:Subclass>
          </gpxx:rpt>
          <gpxx:rpt lat="55.161945819854736" lon="-2.333650588989258"/>
          <gpxx:rpt lat="55.161988735198975" lon="-2.33384370803833"/>
          <gpxx:rpt lat="55.162332057952881" lon="-2.334551811218262"/>
          <gpxx:rpt lat="55.162632465362549" lon="-2.335259914398193"/>
          <gpxx:rpt lat="55.162889957427979" lon="-2.336268424987793"/>
          <gpxx:rpt lat="55.163018703460693" lon="-2.336568832397461"/>
          <gpxx:rpt lat="55.163941383361816" lon="-2.337920665740967"/>
          <gpxx:rpt lat="55.164070129394531" lon="-2.338242530822754"/>
          <gpxx:rpt lat="55.164370536804199" lon="-2.339122295379639"/>
          <gpxx:rpt lat="55.164434909820557" lon="-2.339851856231689"/>
          <gpxx:rpt lat="55.164456367492676" lon="-2.340281009674072"/>
          <gpxx:rpt lat="55.164585113525391" lon="-2.341976165771484"/>
          <gpxx:rpt lat="55.164585113525391" lon="-2.342641353607178"/>
          <gpxx:rpt lat="55.164327621459961" lon="-2.343864440917969"/>
          <gpxx:rpt lat="55.164306163787842" lon="-2.344186305999756">
            <gpxx:Subclass>0500A7E9D80154698D001F02130050FBEC02</gpxx:Subclass>
          </gpxx:rpt>
          <gpxx:rpt lat="55.164306163787842" lon="-2.344186305999756"/>
          <gpxx:rpt lat="55.16434907913208" lon="-2.344379425048828"/>
          <gpxx:rpt lat="55.164456367492676" lon="-2.344551086425781"/>
          <gpxx:rpt lat="55.165164470672607" lon="-2.345280647277832"/>
          <gpxx:rpt lat="55.165164470672607" lon="-2.345280647277832"/>
          <gpxx:rpt lat="55.165636539459229" lon="-2.34583854675293"/>
          <gpxx:rpt lat="55.165786743164062" lon="-2.346138954162598"/>
          <gpxx:rpt lat="55.166044235229492" lon="-2.34734058380127"/>
          <gpxx:rpt lat="55.166430473327637" lon="-2.348799705505371"/>
          <gpxx:rpt lat="55.166537761688232" lon="-2.349421977996826"/>
          <gpxx:rpt lat="55.166473388671875" lon="-2.35081672668457"/>
          <gpxx:rpt lat="55.166430473327637" lon="-2.35283374786377"/>
          <gpxx:rpt lat="55.166494846343994" lon="-2.353627681732178"/>
          <gpxx:rpt lat="55.166645050048828" lon="-2.354378700256348"/>
          <gpxx:rpt lat="55.1668381690979" lon="-2.354979515075684"/>
          <gpxx:rpt lat="55.16735315322876" lon="-2.356288433074951"/>
          <gpxx:rpt lat="55.167481899261475" lon="-2.357103824615479"/>
          <gpxx:rpt lat="55.167460441589355" lon="-2.357490062713623"/>
          <gpxx:rpt lat="55.167117118835449" lon="-2.360258102416992"/>
          <gpxx:rpt lat="55.167009830474854" lon="-2.360644340515137"/>
          <gpxx:rpt lat="55.166752338409424" lon="-2.361159324645996"/>
          <gpxx:rpt lat="55.165958404541016" lon="-2.362189292907715"/>
          <gpxx:rpt lat="55.165722370147705" lon="-2.362661361694336"/>
          <gpxx:rpt lat="55.165615081787109" lon="-2.3630690574646"/>
          <gpxx:rpt lat="55.165486335754395" lon="-2.36431360244751"/>
          <gpxx:rpt lat="55.165379047393799" lon="-2.365579605102539"/>
          <gpxx:rpt lat="55.164992809295654" lon="-2.367339134216309"/>
          <gpxx:rpt lat="55.164992809295654" lon="-2.367918491363525"/>
          <gpxx:rpt lat="55.16510009765625" lon="-2.368755340576172">
            <gpxx:Subclass>0500A7E9D8016E6F0D001F001300BFF23B00</gpxx:Subclass>
          </gpxx:rpt>
          <gpxx:rpt lat="55.16510009765625" lon="-2.368755340576172"/>
          <gpxx:rpt lat="55.165464878082275" lon="-2.370858192443848">
            <gpxx:Subclass>0500A7E9D801E6680D001F001300AFF21208</gpxx:Subclass>
          </gpxx:rpt>
          <gpxx:rpt lat="55.165464878082275" lon="-2.370858192443848"/>
          <gpxx:rpt lat="55.16585111618042" lon="-2.372210025787354"/>
          <gpxx:rpt lat="55.166258811950684" lon="-2.373604774475098"/>
          <gpxx:rpt lat="55.1668381690979" lon="-2.376501560211182"/>
          <gpxx:rpt lat="55.166945457458496" lon="-2.377467155456543"/>
          <gpxx:rpt lat="55.167138576507568" lon="-2.379591464996338"/>
          <gpxx:rpt lat="55.167117118835449" lon="-2.380664348602295"/>
          <gpxx:rpt lat="55.167074203491211" lon="-2.381072044372559"/>
          <gpxx:rpt lat="55.166730880737305" lon="-2.381973266601562"/>
          <gpxx:rpt lat="55.166516304016113" lon="-2.38304615020752"/>
          <gpxx:rpt lat="55.166172981262207" lon="-2.384333610534668"/>
          <gpxx:rpt lat="55.166130065917969" lon="-2.384934425354004"/>
          <gpxx:rpt lat="55.166237354278564" lon="-2.386114597320557"/>
          <gpxx:rpt lat="55.166258811950684" lon="-2.390449047088623"/>
          <gpxx:rpt lat="55.166301727294922" lon="-2.390835285186768"/>
          <gpxx:rpt lat="55.166623592376709" lon="-2.391951084136963"/>
          <gpxx:rpt lat="55.166881084442139" lon="-2.39326000213623"/>
          <gpxx:rpt lat="55.166923999786377" lon="-2.393882274627686"/>
          <gpxx:rpt lat="55.166923999786377" lon="-2.394654750823975"/>
          <gpxx:rpt lat="55.1668381690979" lon="-2.395384311676025"/>
          <gpxx:rpt lat="55.166559219360352" lon="-2.396714687347412"/>
          <gpxx:rpt lat="55.165829658508301" lon="-2.398216724395752"/>
          <gpxx:rpt lat="55.165657997131348" lon="-2.398881912231445"/>
          <gpxx:rpt lat="55.165507793426514" lon="-2.399804592132568"/>
          <gpxx:rpt lat="55.165314674377441" lon="-2.401285171508789"/>
          <gpxx:rpt lat="55.165228843688965" lon="-2.402336597442627"/>
          <gpxx:rpt lat="55.165207386016846" lon="-2.403323650360107"/>
          <gpxx:rpt lat="55.165486335754395" lon="-2.404568195343018"/>
          <gpxx:rpt lat="55.165572166442871" lon="-2.406241893768311"/>
          <gpxx:rpt lat="55.165464878082275" lon="-2.408215999603271"/>
          <gpxx:rpt lat="55.165057182312012" lon="-2.411112785339355"/>
          <gpxx:rpt lat="55.165078639984131" lon="-2.412421703338623"/>
          <gpxx:rpt lat="55.165700912475586" lon="-2.416777610778809"/>
          <gpxx:rpt lat="55.166065692901611" lon="-2.418923377990723"/>
          <gpxx:rpt lat="55.167074203491211" lon="-2.423021793365479"/>
          <gpxx:rpt lat="55.167074203491211" lon="-2.423021793365479"/>
          <gpxx:rpt lat="55.167288780212402" lon="-2.423880100250244"/>
          <gpxx:rpt lat="55.167610645294189" lon="-2.424824237823486"/>
          <gpxx:rpt lat="55.168168544769287" lon="-2.426068782806396"/>
          <gpxx:rpt lat="55.168962478637695" lon="-2.42823600769043"/>
          <gpxx:rpt lat="55.169949531555176" lon="-2.430639266967773"/>
          <gpxx:rpt lat="55.170872211456299" lon="-2.433171272277832"/>
          <gpxx:rpt lat="55.171279907226562" lon="-2.434093952178955"/>
          <gpxx:rpt lat="55.172288417816162" lon="-2.43596076965332"/>
          <gpxx:rpt lat="55.173017978668213" lon="-2.43696928024292"/>
          <gpxx:rpt lat="55.173404216766357" lon="-2.437484264373779"/>
          <gpxx:rpt lat="55.1743483543396" lon="-2.438600063323975"/>
          <gpxx:rpt lat="55.175378322601318" lon="-2.440016269683838">
            <gpxx:Subclass>0500A7E9D8012C6C8D001F00130009EF8C01</gpxx:Subclass>
          </gpxx:rpt>
          <gpxx:rpt lat="55.175378322601318" lon="-2.440016269683838"/>
          <gpxx:rpt lat="55.175786018371582" lon="-2.440938949584961"/>
          <gpxx:rpt lat="55.176236629486084" lon="-2.442505359649658"/>
          <gpxx:rpt lat="55.176923274993896" lon="-2.444994449615479"/>
          <gpxx:rpt lat="55.17733097076416" lon="-2.446389198303223"/>
          <gpxx:rpt lat="55.17758846282959" lon="-2.447612285614014"/>
          <gpxx:rpt lat="55.177631378173828" lon="-2.448084354400635"/>
          <gpxx:rpt lat="55.177481174468994" lon="-2.450423240661621"/>
          <gpxx:rpt lat="55.177545547485352" lon="-2.451066970825195"/>
          <gpxx:rpt lat="55.177674293518066" lon="-2.451860904693604"/>
          <gpxx:rpt lat="55.177674293518066" lon="-2.452268600463867"/>
          <gpxx:rpt lat="55.177652835845947" lon="-2.452483177185059"/>
          <gpxx:rpt lat="55.177373886108398" lon="-2.453727722167969">
            <gpxx:Subclass>0500A7E9D8015B6F8D001F00130091EF2700</gpxx:Subclass>
          </gpxx:rpt>
          <gpxx:rpt lat="55.177373886108398" lon="-2.453727722167969"/>
          <gpxx:rpt lat="55.17707347869873" lon="-2.455079555511475">
            <gpxx:Subclass>0500A7E9D801076C8D001F001300A5EF5F00</gpxx:Subclass>
          </gpxx:rpt>
          <gpxx:rpt lat="55.17707347869873" lon="-2.455079555511475"/>
          <gpxx:rpt lat="55.176901817321777" lon="-2.456238269805908"/>
          <gpxx:rpt lat="55.176923274993896" lon="-2.457847595214844"/>
          <gpxx:rpt lat="55.176880359649658" lon="-2.458598613739014">
            <gpxx:Subclass>0500A7E9D801486F8D001F001300B7EF1600</gpxx:Subclass>
          </gpxx:rpt>
          <gpxx:rpt lat="55.176880359649658" lon="-2.458598613739014"/>
          <gpxx:rpt lat="55.176815986633301" lon="-2.459414005279541">
            <gpxx:Subclass>0500A7E9D801386F8D001F001300DAEF2500</gpxx:Subclass>
          </gpxx:rpt>
          <gpxx:rpt lat="55.176815986633301" lon="-2.459414005279541"/>
          <gpxx:rpt lat="55.176708698272705" lon="-2.460787296295166">
            <gpxx:Subclass>0500A7E9D801F66B8D001F001300E8EF1700</gpxx:Subclass>
          </gpxx:rpt>
          <gpxx:rpt lat="55.176708698272705" lon="-2.460787296295166"/>
          <gpxx:rpt lat="55.176601409912109" lon="-2.461645603179932">
            <gpxx:Subclass>0500A7E9D801F66B8D001F00130001F06C01</gpxx:Subclass>
          </gpxx:rpt>
          <gpxx:rpt lat="55.176601409912109" lon="-2.461645603179932"/>
          <gpxx:rpt lat="55.176172256469727" lon="-2.463340759277344"/>
          <gpxx:rpt lat="55.175786018371582" lon="-2.46443510055542"/>
          <gpxx:rpt lat="55.175786018371582" lon="-2.46443510055542"/>
          <gpxx:rpt lat="55.174691677093506" lon="-2.466902732849121"/>
          <gpxx:rpt lat="55.174155235290527" lon="-2.468576431274414"/>
          <gpxx:rpt lat="55.173811912536621" lon="-2.470099925994873"/>
          <gpxx:rpt lat="55.173490047454834" lon="-2.472610473632812"/>
          <gpxx:rpt lat="55.173296760767698" lon="-2.473840182647109">
            <gpxx:Subclass>0500A7E9D801F66B0D0021170000AD156C01</gpxx:Subclass>
          </gpxx:rpt>
        </gpxx:RoutePointExtension>
      </extensions>
    </rtept>
    <rtept lat="55.173272034153342" lon="-2.47382802888751">
      <time>2025-03-10T17:40:46Z</time>
      <name>Tower Knowe Visitor Centre, Kielder</name>
      <sym>Flag, Blue</sym>
      <extensions>
        <trp:ShapingPoint/>
        <gpxx:RoutePointExtension>
          <gpxx:Subclass>000000000000FFFFFFFFFFFFFFFFFFFFFFFF</gpxx:Subclass>
          <gpxx:rpt lat="55.173296760767698" lon="-2.473840182647109">
            <gpxx:Subclass>0500A7E9D801F66B0D0021160000AD150800</gpxx:Subclass>
          </gpxx:rpt>
          <gpxx:rpt lat="55.173254013061523" lon="-2.474112510681152"/>
          <gpxx:rpt lat="55.173254013061523" lon="-2.474112510681152"/>
          <gpxx:rpt lat="55.173254013061523" lon="-2.474112510681152"/>
          <gpxx:rpt lat="55.173254013061523" lon="-2.474112510681152">
            <gpxx:Subclass>0500A7E9D801F66B8D001F00130011F08E14</gpxx:Subclass>
          </gpxx:rpt>
          <gpxx:rpt lat="55.173254013061523" lon="-2.474112510681152"/>
          <gpxx:rpt lat="55.172889232635498" lon="-2.475614547729492"/>
          <gpxx:rpt lat="55.172460079193115" lon="-2.476987838745117"/>
          <gpxx:rpt lat="55.171945095062256" lon="-2.478232383728027"/>
          <gpxx:rpt lat="55.171194076538086" lon="-2.479691505432129"/>
          <gpxx:rpt lat="55.170550346374512" lon="-2.48065710067749"/>
          <gpxx:rpt lat="55.169777870178223" lon="-2.481579780578613"/>
          <gpxx:rpt lat="55.168254375457764" lon="-2.482953071594238"/>
          <gpxx:rpt lat="55.167760848999023" lon="-2.483489513397217"/>
          <gpxx:rpt lat="55.167310237884521" lon="-2.484133243560791"/>
          <gpxx:rpt lat="55.166988372802734" lon="-2.484734058380127"/>
          <gpxx:rpt lat="55.166580677032471" lon="-2.485678195953369"/>
          <gpxx:rpt lat="55.165765285491943" lon="-2.488360404968262"/>
          <gpxx:rpt lat="55.165379047393799" lon="-2.489304542541504"/>
          <gpxx:rpt lat="55.164413452148438" lon="-2.491106986999512"/>
          <gpxx:rpt lat="55.16409158706665" lon="-2.491922378540039"/>
          <gpxx:rpt lat="55.163919925689697" lon="-2.49265193939209"/>
          <gpxx:rpt lat="55.163769721984863" lon="-2.493553161621094"/>
          <gpxx:rpt lat="55.163705348968506" lon="-2.494518756866455"/>
          <gpxx:rpt lat="55.163769721984863" lon="-2.495548725128174"/>
          <gpxx:rpt lat="55.163834095001221" lon="-2.49614953994751"/>
          <gpxx:rpt lat